[
  {
    "tag": "Αφάντου",
    "nameEn": "Afandou",
    "region": "rhodes",
    "oldLat": 36.293875,
    "oldLon": 28.162187,
    "newLat": 36.2938751,
    "newLon": 28.1621871,
    "distanceKm": 3.413643635610437,
    "nominatimName": "Ρόδου, Αφάντου, Δήμος Ρόδου, Περιφερειακή Ενότητα Ρόδου, Περιφέρεια Νοτίου Αιγαίου, Αποκεντρωμένη Διοίκηση Αιγαίου, 851 03, Ελλάδα",
    "status": "corrected"
  },
  {
    "tag": "Ψίνθο",
    "nameEn": "Psinthos",
    "region": "rhodes",
    "oldLat": 36.314566,
    "oldLon": 28.095778,
    "newLat": 36.3145661,
    "newLon": 28.0957781,
    "distanceKm": 4.0228832837439015,
    "nominatimName": "Ψίνθος, Δήμος Ρόδου, Περιφερειακή Ενότητα Ρόδου, Περιφέρεια Νοτίου Αιγαίου, Αποκεντρωμένη Διοίκηση Αιγαίου, 851 00, Ελλάδα",
    "status": "corrected"
  },
  {
    "tag": "Μαριτσά",
    "nameEn": "Maritsa",
    "region": "rhodes",
    "oldLat": 36.360775,
    "oldLon": 28.117281,
    "newLat": 36.3607747,
    "newLon": 28.1172807,
    "distanceKm": 7.318539375650877,
    "nominatimName": "Μαριτσά, Δήμος Ρόδου, Περιφερειακή Ενότητα Ρόδου, Περιφέρεια Νοτίου Αιγαίου, Αποκεντρωμένη Διοίκηση Αιγαίου, 851 06, Ελλάδα",
    "status": "corrected"
  },
  {
    "tag": "Καλυθιές",
    "nameEn": "Kalythies",
    "region": "rhodes",
    "oldLat": 36.335893,
    "oldLon": 28.174439,
    "newLat": 36.3358929,
    "newLon": 28.1744387,
    "distanceKm": 5.951599955430938,
    "nominatimName": "Καλυθιές, Δήμος Ρόδου, Περιφερειακή Ενότητα Ρόδου, Περιφέρεια Νοτίου Αιγαίου, Αποκεντρωμένη Διοίκηση Αιγαίου, Ελλάδα",
    "status": "corrected"
  },
  {
    "tag": "Ρόδο",
    "nameEn": "Rhodes",
    "region": "rhodes",
    "oldLat": 36.17253,
    "oldLon": 27.919402,
    "newLat": 36.1725297,
    "newLon": 27.9194016,
    "distanceKm": 0.00004900943394551053,
    "nominatimName": "Ρόδος, Αποκεντρωμένη Διοίκηση Αιγαίου, Ελλάδα",
    "status": "ok"
  },
  {
    "tag": "Βασιλίτσι",
    "nameEn": "Vasilitsi",
    "region": "messinia",
    "oldLat": 36.764522,
    "oldLon": 21.90883,
    "newLat": 36.7645223,
    "newLon": 21.9088304,
    "distanceKm": 0.0000488096769159967,
    "nominatimName": "Βασιλίτσι, Δημοτική Ενότητα Κορώνης, Δήμος Πύλου - Νέστορος, Περιφερειακή Ενότητα Μεσσηνίας, Περιφέρεια Πελοποννήσου, Αποκεντρωμένη Διοίκηση Πελοποννήσου, Δυτικής Ελλάδας και Ιονίου, 240 04, Ελλάδα",
    "status": "ok"
  },
  {
    "tag": "Κορώνη",
    "nameEn": "Koroni",
    "region": "messinia",
    "oldLat": 36.795,
    "oldLon": 21.958,
    "newLat": 36.7964395,
    "newLon": 21.9559911,
    "distanceKm": 0.2400370843505074,
    "nominatimName": "Κορώνη, Δημοτική Ενότητα Κορώνης, Δήμος Πύλου - Νέστορος, Περιφερειακή Ενότητα Μεσσηνίας, Περιφέρεια Πελοποννήσου, Αποκεντρωμένη Διοίκηση Πελοποννήσου, Δυτικής Ελλάδας και Ιονίου, 240 04, Ελλάδα",
    "status": "ok"
  },
  {
    "tag": "Λειβαδάκια",
    "nameEn": "Leivadakia",
    "region": "messinia",
    "oldLat": 36.779608,
    "oldLon": 21.925823,
    "newLat": 36.7796077,
    "newLon": 21.9258228,
    "distanceKm": 0.000037816164814657316,
    "nominatimName": "Μέμι - Λιβαδάκια, Λιβαδάκια, Κορώνη, Δημοτική Ενότητα Κορώνης, Δήμος Πύλου - Νέστορος, Περιφερειακή Ενότητα Μεσσηνίας, Περιφέρεια Πελοποννήσου, Αποκεντρωμένη Διοίκηση Πελοποννήσου, Δυτικής Ελλάδας και Ιονίου, 240 04, Ελλάδα",
    "status": "ok"
  },
  {
    "tag": "Δεσύλλα",
    "nameEn": "Desylla",
    "region": "messinia",
    "oldLat": 37.167,
    "oldLon": 21.958,
    "newLat": null,
    "newLon": null,
    "distanceKm": -1,
    "nominatimName": "",
    "status": "not_found"
  },
  {
    "tag": "Καρνάσι",
    "nameEn": "Karnasi",
    "region": "messinia",
    "oldLat": 37.147,
    "oldLon": 21.952,
    "newLat": null,
    "newLon": null,
    "distanceKm": -1,
    "nominatimName": "",
    "status": "not_found"
  },
  {
    "tag": "Παραπούγκι",
    "nameEn": "Parapoungki",
    "region": "messinia",
    "oldLat": 37.305443,
    "oldLon": 21.98712,
    "newLat": 37.3054429,
    "newLon": 21.9871203,
    "distanceKm": 0.000028769585463601998,
    "nominatimName": "Παραπούγκι, Δήμος Οιχαλίας, Περιφερειακή Ενότητα Μεσσηνίας, Περιφέρεια Πελοποννήσου, Αποκεντρωμένη Διοίκηση Πελοποννήσου, Δυτικής Ελλάδας και Ιονίου, 240 08, Ελλάδα",
    "status": "ok"
  },
  {
    "tag": "ΆγιοςΓεώργιος",
    "nameEn": "Agios Georgios",
    "region": "messinia",
    "oldLat": 37.311582,
    "oldLon": 21.846191,
    "newLat": 37.311582,
    "newLon": 21.8461915,
    "distanceKm": 0.00004421949614137076,
    "nominatimName": "Άγιος Γεώργιος, Δήμος Οιχαλίας, Περιφερειακή Ενότητα Μεσσηνίας, Περιφέρεια Πελοποννήσου, Αποκεντρωμένη Διοίκηση Πελοποννήσου, Δυτικής Ελλάδας και Ιονίου, 240 11, Ελλάδα",
    "status": "ok"
  },
  {
    "tag": "Κεντρικό",
    "nameEn": "Kentriko",
    "region": "messinia",
    "oldLat": 37.278159,
    "oldLon": 21.970811,
    "newLat": 37.2781591,
    "newLon": 21.9708113,
    "distanceKm": 0.00002877846246632397,
    "nominatimName": "Κεντρικό, Δήμος Οιχαλίας, Περιφερειακή Ενότητα Μεσσηνίας, Περιφέρεια Πελοποννήσου, Αποκεντρωμένη Διοίκηση Πελοποννήσου, Δυτικής Ελλάδας και Ιονίου, 240 08, Ελλάδα",
    "status": "ok"
  },
  {
    "tag": "Ζευγολατειό",
    "nameEn": "Zevgolateio",
    "region": "messinia",
    "oldLat": 37.145,
    "oldLon": 21.895,
    "newLat": null,
    "newLon": null,
    "distanceKm": -1,
    "nominatimName": "",
    "status": "not_found"
  },
  {
    "tag": "Διαβολίτσι",
    "nameEn": "Diavolitsi",
    "region": "messinia",
    "oldLat": 37.299835,
    "oldLon": 21.968966,
    "newLat": 37.2998347,
    "newLon": 21.9689662,
    "distanceKm": 0.000037759026167448466,
    "nominatimName": "Διαβολίτσι, Δήμος Οιχαλίας, Περιφερειακή Ενότητα Μεσσηνίας, Περιφέρεια Πελοποννήσου, Αποκεντρωμένη Διοίκηση Πελοποννήσου, Δυτικής Ελλάδας και Ιονίου, 240 08, Ελλάδα",
    "status": "ok"
  },
  {
    "tag": "Άνω_Κάτω_Μέλπεια",
    "nameEn": "Ano Kato Melpeia",
    "region": "messinia",
    "oldLat": 37.307524,
    "oldLon": 21.902605,
    "newLat": 37.3075235,
    "newLon": 21.9026049,
    "distanceKm": 0.000056296544405525405,
    "nominatimName": "Άνω Γλιάτα (Μάνδρας), Ηλέκτρα, Δήμος Οιχαλίας, Περιφερειακή Ενότητα Μεσσηνίας, Περιφέρεια Πελοποννήσου, Αποκεντρωμένη Διοίκηση Πελοποννήσου, Δυτικής Ελλάδας και Ιονίου, 240 08, Ελλάδα",
    "status": "ok"
  },
  {
    "tag": "Βαρυμπόμπη",
    "nameEn": "Varympompi",
    "region": "attica_north",
    "oldLat": 38.129999,
    "oldLon": 23.789367,
    "newLat": 38.1299992,
    "newLon": 23.7893666,
    "distanceKm": 2.16114228031257,
    "nominatimName": "Βαρυμπόμπη, Κοινότητα Αχαρνών, Δημοτική Ενότητα Αχαρνών, Δήμος Αχαρνών, Περιφερειακή Ενότητα Ανατολικής Αττικής, Περιφέρεια Αττικής, Αποκεντρωμένη Διοίκηση Αττικής, 136 76, Ελλάδα",
    "status": "corrected"
  },
  {
    "tag": "Θρακομακεδόνες",
    "nameEn": "Thrakomakedones",
    "region": "attica_north",
    "oldLat": 38.129447,
    "oldLon": 23.757369,
    "newLat": 38.1294473,
    "newLon": 23.7573686,
    "distanceKm": 2.285583311208548,
    "nominatimName": "Θρακομακεδόνες, Κοινότητα Θρακομακεδόνων, Δημοτική Ενότητα Θρακομακεδόνων, Δήμος Αχαρνών, Περιφερειακή Ενότητα Ανατολικής Αττικής, Περιφέρεια Αττικής, Αποκεντρωμένη Διοίκηση Αττικής, 136 76, Ελλάδα",
    "status": "corrected"
  },
  {
    "tag": "Αδάμες",
    "nameEn": "Adames",
    "region": "attica_north",
    "oldLat": 38.099087,
    "oldLon": 23.790995,
    "newLat": 38.0990873,
    "newLon": 23.7909947,
    "distanceKm": 5.208971970373886,
    "nominatimName": "Αδάμες, Δήμος Κηφισιάς, Περιφερειακή Ενότητα Βορείου Τομέα Αθηνών, Περιφέρεια Αττικής, Αποκεντρωμένη Διοίκηση Αττικής, 145 64, Ελλάδα",
    "status": "corrected"
  },
  {
    "tag": "Αχαρνές",
    "nameEn": "Acharnes",
    "region": "attica_north",
    "oldLat": 38.080218,
    "oldLon": 23.743629,
    "newLat": 38.0802184,
    "newLon": 23.7436291,
    "distanceKm": 2.0911423881416624,
    "nominatimName": "Αχαρνές, Αγίου Κωνσταντίνου, Κοινότητα Αχαρνών, Δημοτική Ενότητα Αχαρνών, Δήμος Αχαρνών, Περιφερειακή Ενότητα Ανατολικής Αττικής, Περιφέρεια Αττικής, Αποκεντρωμένη Διοίκηση Αττικής, 163 71, Ελλάδα",
    "status": "corrected"
  },
  {
    "tag": "Ολυμπιακό_Χωριό",
    "nameEn": "Olympic Village",
    "region": "attica_north",
    "oldLat": 38.109386,
    "oldLon": 23.768163,
    "newLat": 38.1093864,
    "newLon": 23.7681629,
    "distanceKm": 2.1479395756429027,
    "nominatimName": "Ολυμπιακό Χωριό, Κοινότητα Αχαρνών, Δημοτική Ενότητα Αχαρνών, Δήμος Αχαρνών, Περιφερειακή Ενότητα Ανατολικής Αττικής, Περιφέρεια Αττικής, Αποκεντρωμένη Διοίκηση Αττικής, 136 77, Ελλάδα",
    "status": "corrected"
  },
  {
    "tag": "Κρυονέρι",
    "nameEn": "Kryoneri",
    "region": "attica_north",
    "oldLat": 38.140447,
    "oldLon": 23.832835,
    "newLat": 38.1404465,
    "newLon": 23.832835,
    "distanceKm": 4.43648250263076,
    "nominatimName": "Κρυονέρι, Κοινότητα Κρυονερίου, Δημοτική Ενότητα Κρυονερίου, Δήμος Διονύσου, Περιφερειακή Ενότητα Ανατολικής Αττικής, Περιφέρεια Αττικής, Αποκεντρωμένη Διοίκηση Αττικής, 145 68, Ελλάδα",
    "status": "corrected"
  },
  {
    "tag": "Δροσοπηγή",
    "nameEn": "Drosopigi",
    "region": "attica_north",
    "oldLat": 38.168321,
    "oldLon": 23.829347,
    "newLat": 38.1683207,
    "newLon": 23.8293474,
    "distanceKm": 4.524559551682114,
    "nominatimName": "Δροσοπηγή, Δήμος Ωρωπού, Περιφερειακή Ενότητα Ανατολικής Αττικής, Περιφέρεια Αττικής, Αποκεντρωμένη Διοίκηση Αττικής, Ελλάδα",
    "status": "corrected"
  },
  {
    "tag": "Ιπποκράτειο",
    "nameEn": "Ippokrateio",
    "region": "attica_north",
    "oldLat": 37.983464,
    "oldLon": 23.758654,
    "newLat": 37.983464,
    "newLon": 23.7586535,
    "distanceKm": 0.00004382127584932311,
    "nominatimName": "ΙΠΠΟΚΡΑΤΕΙΟ, Βασιλίσσης Σοφίας, Κουντουριώτικα, Αμπελόκηποι, 7η Κοινότητα Αθηνών, Αθήνα, Δήμος Αθηναίων, Περιφερειακή Ενότητα Κεντρικού Τομέα Αθηνών, Περιφέρεια Αττικής, Αποκεντρωμένη Διοίκηση Αττικής, 115 28, Ελλάδα",
    "status": "ok"
  },
  {
    "tag": "Αφίδνες",
    "nameEn": "Afidnes",
    "region": "attica_north",
    "oldLat": 38.203,
    "oldLon": 23.838,
    "newLat": 38.20577,
    "newLon": 23.8367212,
    "distanceKm": 0.3276518562123388,
    "nominatimName": "Αφίδνες, Δήμος Ωρωπού, Περιφερειακή Ενότητα Ανατολικής Αττικής, Περιφέρεια Αττικής, Αποκεντρωμένη Διοίκηση Αττικής, 190 14, Ελλάδα",
    "status": "ok"
  },
  {
    "tag": "Κοκκινόβραχος",
    "nameEn": "Kokkinovrachos",
    "region": "attica_north",
    "oldLat": 37.97649,
    "oldLon": 23.6126,
    "newLat": 37.97649,
    "newLon": 23.6126,
    "distanceKm": 0,
    "nominatimName": "Κοκκινόβραχος, Δήμος Κερατσινίου - Δραπετσώνας, Περιφερειακή Ενότητα Πειραιώς, Περιφέρεια Αττικής, Αποκεντρωμένη Διοίκηση Αττικής, 187 58, Ελλάδα",
    "status": "ok"
  },
  {
    "tag": "Σταμάτας",
    "nameEn": "Stamata",
    "region": "attica_north",
    "oldLat": 38.120989,
    "oldLon": 23.860182,
    "newLat": 38.1209889,
    "newLon": 23.860182,
    "distanceKm": 3.2939970867901716,
    "nominatimName": "Σταμάτας, Άνοιξη, Δήμος Διονύσου, Περιφερειακή Ενότητα Ανατολικής Αττικής, Περιφέρεια Αττικής, Αποκεντρωμένη Διοίκηση Αττικής, 145 69, Ελλάδα",
    "status": "corrected"
  },
  {
    "tag": "Ροδόπολης",
    "nameEn": "Rodopoli",
    "region": "attica_north",
    "oldLat": 37.893739,
    "oldLon": 23.754245,
    "newLat": 37.8937386,
    "newLon": 23.7542449,
    "distanceKm": 0.00004533530405113062,
    "nominatimName": "Ροδόπολης, Σούρμενα, Ελληνικό, Δημοτική Ενότητα Ελληνικού, Δήμος Ελληνικού - Αργυρούπολης, Περιφερειακή Ενότητα Νοτίου Τομέα Αθηνών, Περιφέρεια Αττικής, Αποκεντρωμένη Διοίκηση Αττικής, 167 77, Ελλάδα",
    "status": "ok"
  },
  {
    "tag": "Πολυδένδρι",
    "nameEn": "Polydendri",
    "region": "attica_north",
    "oldLat": 38.216374,
    "oldLon": 23.867864,
    "newLat": 38.2163741,
    "newLon": 23.8678642,
    "distanceKm": 1.747296163475251,
    "nominatimName": "Πολυδένδρι, Δήμος Ωρωπού, Περιφερειακή Ενότητα Ανατολικής Αττικής, Περιφέρεια Αττικής, Αποκεντρωμένη Διοίκηση Αττικής, 190 14, Ελλάδα",
    "status": "corrected"
  },
  {
    "tag": "Βαρνάβα",
    "nameEn": "Varnava",
    "region": "attica_north",
    "oldLat": 37.92087,
    "oldLon": 23.732288,
    "newLat": 37.9208703,
    "newLon": 23.7322882,
    "distanceKm": 0.000037690326827978865,
    "nominatimName": "Βαρνάβα, Δήμος Αγίου Δημητρίου, Περιφερειακή Ενότητα Νοτίου Τομέα Αθηνών, Περιφέρεια Αττικής, Αποκεντρωμένη Διοίκηση Αττικής, 174 56, Ελλάδα",
    "status": "ok"
  },
  {
    "tag": "Μίλεσι",
    "nameEn": "Milesi",
    "region": "attica_north",
    "oldLat": 38.273346,
    "oldLon": 23.806016,
    "newLat": 38.2733459,
    "newLon": 23.8060161,
    "distanceKm": 7.045943004626828,
    "nominatimName": "Μήλεσι - Αγία Βαρβάρα, Αγία Βαρβάρα, Μήλεσι, Δήμος Ωρωπού, Περιφερειακή Ενότητα Ανατολικής Αττικής, Περιφέρεια Αττικής, Αποκεντρωμένη Διοίκηση Αττικής, 190 15, Ελλάδα",
    "status": "corrected"
  },
  {
    "tag": "Καπανδρίτι",
    "nameEn": "Kapandriti",
    "region": "attica_north",
    "oldLat": 38.215872,
    "oldLon": 23.877193,
    "newLat": 38.2158722,
    "newLon": 23.8771927,
    "distanceKm": 4.129677698857392,
    "nominatimName": "Καπανδρίτι, Δήμος Ωρωπού, Περιφερειακή Ενότητα Ανατολικής Αττικής, Περιφέρεια Αττικής, Αποκεντρωμένη Διοίκηση Αττικής, 190 14, Ελλάδα",
    "status": "corrected"
  },
  {
    "tag": "Μαλακάσα",
    "nameEn": "Malakasa",
    "region": "attica_north",
    "oldLat": 38.238815,
    "oldLon": 23.796004,
    "newLat": 38.2388148,
    "newLon": 23.7960045,
    "distanceKm": 0.7276373371315275,
    "nominatimName": "Μαλακάσα, Δήμος Ωρωπού, Περιφερειακή Ενότητα Ανατολικής Αττικής, Περιφέρεια Αττικής, Αποκεντρωμένη Διοίκηση Αττικής, 190 11, Ελλάδα",
    "status": "ok"
  },
  {
    "tag": "Σφενδάλη",
    "nameEn": "Sfendali",
    "region": "attica_north",
    "oldLat": 38.235496,
    "oldLon": 23.78474,
    "newLat": 38.2354961,
    "newLon": 23.7847403,
    "distanceKm": 1.597983815501309,
    "nominatimName": "Σφενδάλη, Πεύκων, Σφενδάλη, Μαλακάσα, Δήμος Ωρωπού, Περιφερειακή Ενότητα Ανατολικής Αττικής, Περιφέρεια Αττικής, Αποκεντρωμένη Διοίκηση Αττικής, 190 11, Ελλάδα",
    "status": "corrected"
  },
  {
    "tag": "Μαρκόπουλο_Ωρωπού",
    "nameEn": "Markopoulo Oropou",
    "region": "attica_north",
    "oldLat": 38.289859,
    "oldLon": 23.823737,
    "newLat": 38.2898595,
    "newLon": 23.8237368,
    "distanceKm": 4.777194051638495,
    "nominatimName": "Μαρκόπουλο Ωρωπού, Δήμος Ωρωπού, Περιφερειακή Ενότητα Ανατολικής Αττικής, Περιφέρεια Αττικής, Αποκεντρωμένη Διοίκηση Αττικής, 190 15, Ελλάδα",
    "status": "corrected"
  },
  {
    "tag": "Ωρωπό",
    "nameEn": "Oropos",
    "region": "attica_north",
    "oldLat": 38.305,
    "oldLon": 23.752,
    "newLat": 38.304395,
    "newLon": 23.7533067,
    "distanceKm": 0.13238604629944448,
    "nominatimName": "Ωρωπός, Δήμος Ωρωπού, Περιφερειακή Ενότητα Ανατολικής Αττικής, Περιφέρεια Αττικής, Αποκεντρωμένη Διοίκηση Αττικής, 190 15, Ελλάδα",
    "status": "ok"
  },
  {
    "tag": "Κάλαμο",
    "nameEn": "Kalamo",
    "region": "attica_north",
    "oldLat": 38.269,
    "oldLon": 23.857,
    "newLat": null,
    "newLon": null,
    "distanceKm": -1,
    "nominatimName": "",
    "status": "not_found"
  },
  {
    "tag": "Κηφισίας",
    "nameEn": "Kifissia",
    "region": "attica_north",
    "oldLat": 38.038394,
    "oldLon": 23.800739,
    "newLat": 38.038394,
    "newLon": 23.8007392,
    "distanceKm": 4.559712518283042,
    "nominatimName": "Κηφισίας, Παράδεισος, Δήμος Αμαρουσίου, Περιφερειακή Ενότητα Βορείου Τομέα Αθηνών, Περιφέρεια Αττικής, Αποκεντρωμένη Διοίκηση Αττικής, 151 25, Ελλάδα",
    "status": "corrected"
  },
  {
    "tag": "Πουρίθι",
    "nameEn": "Pourithi",
    "region": "attica_north",
    "oldLat": 38.208493,
    "oldLon": 23.90697,
    "newLat": 38.2084927,
    "newLon": 23.9069705,
    "distanceKm": 4.7826627926570575,
    "nominatimName": "Πουρίθι, Δήμος Μαραθώνος, Περιφερειακή Ενότητα Ανατολικής Αττικής, Περιφέρεια Αττικής, Αποκεντρωμένη Διοίκηση Αττικής, 190 14, Ελλάδα",
    "status": "corrected"
  },
  {
    "tag": "Ταξιάρχες",
    "nameEn": "Taxiarches",
    "region": "attica_north",
    "oldLat": 38.202124,
    "oldLon": 23.856103,
    "newLat": 38.2021245,
    "newLon": 23.8561027,
    "distanceKm": 1.2428305663293324,
    "nominatimName": "Ταξιάρχες, Δήμος Ωρωπού, Περιφερειακή Ενότητα Ανατολικής Αττικής, Περιφέρεια Αττικής, Αποκεντρωμένη Διοίκηση Αττικής, 190 14, Ελλάδα",
    "status": "corrected"
  },
  {
    "tag": "Μαραθώνα",
    "nameEn": "Marathon",
    "region": "attica_north",
    "oldLat": 38.082854,
    "oldLon": 23.710398,
    "newLat": 38.082854,
    "newLon": 23.7103978,
    "distanceKm": 0.000017504742269927774,
    "nominatimName": "Μαραθώνα, Λίμνη, Άνω Λιόσια, Κοινότητα Άνω Λιοσίων, Δημοτική Ενότητα Άνω Λιοσίων, Δήμος Φυλής, Περιφερειακή Ενότητα Δυτικής Αττικής, Περιφέρεια Αττικής, Αποκεντρωμένη Διοίκηση Αττικής, 133 41, Ελλάδα",
    "status": "ok"
  },
  {
    "tag": "Βόθωνα",
    "nameEn": "Vothona",
    "region": "attica_north",
    "oldLat": 38.154,
    "oldLon": 23.95,
    "newLat": null,
    "newLon": null,
    "distanceKm": -1,
    "nominatimName": "",
    "status": "not_found"
  },
  {
    "tag": "Νέα_Μάκρη",
    "nameEn": "Nea Makri",
    "region": "attica_north",
    "oldLat": 38.083049,
    "oldLon": 23.97907,
    "newLat": 38.083049,
    "newLon": 23.97907,
    "distanceKm": 1.1079340222162974,
    "nominatimName": "Νέα Μάκρη, Δημοτική Ενότητα Νέας Μάκρης, Δήμος Μαραθώνος, Περιφερειακή Ενότητα Ανατολικής Αττικής, Περιφέρεια Αττικής, Αποκεντρωμένη Διοίκηση Αττικής, 190 05, Ελλάδα",
    "status": "corrected"
  },
  {
    "tag": "Ανοίξεως",
    "nameEn": "Anoixi",
    "region": "attica_north",
    "oldLat": 37.971858,
    "oldLon": 23.862604,
    "newLat": 37.9718584,
    "newLon": 23.8626043,
    "distanceKm": 14.63918090573171,
    "nominatimName": "Ανοίξεως, Κοινότητα Παιανίας, Δημοτική Ενότητα Παιανίας, Δήμος Παιανίας, Περιφερειακή Ενότητα Ανατολικής Αττικής, Περιφέρεια Αττικής, Αποκεντρωμένη Διοίκηση Αττικής, 190 02, Ελλάδα",
    "status": "corrected"
  },
  {
    "tag": "Πευκόφυτο",
    "nameEn": "Pefkofyto",
    "region": "attica_north",
    "oldLat": 38.15431,
    "oldLon": 23.867663,
    "newLat": 38.1543103,
    "newLon": 23.8676625,
    "distanceKm": 3.5008616085057898,
    "nominatimName": "Πευκόφυτο, Δήμος Διονύσου, Περιφερειακή Ενότητα Ανατολικής Αττικής, Περιφέρεια Αττικής, Αποκεντρωμένη Διοίκηση Αττικής, 145 65, Ελλάδα",
    "status": "corrected"
  },
  {
    "tag": "Αγίου_Στεφάνου",
    "nameEn": "Agios Stefanos",
    "region": "attica_north",
    "oldLat": 37.99704,
    "oldLon": 23.747641,
    "newLat": 37.99704,
    "newLon": 23.7476407,
    "distanceKm": 0.000026287900348183,
    "nominatimName": "Αγίου Στεφάνου, Πολύγωνο, Συνοικία Πολυγώνου, Αμπελόκηποι, 7η Κοινότητα Αθηνών, Αθήνα, Δήμος Αθηναίων, Περιφερειακή Ενότητα Κεντρικού Τομέα Αθηνών, Περιφέρεια Αττικής, Αποκεντρωμένη Διοίκηση Αττικής, 114 74, Ελλάδα",
    "status": "ok"
  },
  {
    "tag": "Αθήνα",
    "nameEn": "Athens",
    "region": "attica_north",
    "oldLat": 37.975,
    "oldLon": 23.735,
    "newLat": 37.9755648,
    "newLon": 23.7348324,
    "distanceKm": 0.0644981799613659,
    "nominatimName": "Αθήνα, Δήμος Αθηναίων, Περιφερειακή Ενότητα Κεντρικού Τομέα Αθηνών, Περιφέρεια Αττικής, Αποκεντρωμένη Διοίκηση Αττικής, 105 57, Ελλάδα",
    "status": "ok"
  },
  {
    "tag": "Ποντίων",
    "nameEn": "Pontion",
    "region": "attica_north",
    "oldLat": 37.965744,
    "oldLon": 23.561505,
    "newLat": 37.9657438,
    "newLon": 23.5615046,
    "distanceKm": 0.00004152301434509608,
    "nominatimName": "Ποντίων, Πέραμα, Δήμος Περάματος, Περιφερειακή Ενότητα Πειραιώς, Περιφέρεια Αττικής, Αποκεντρωμένη Διοίκηση Αττικής, 188 63, Ελλάδα",
    "status": "ok"
  },
  {
    "tag": "Άγιο_Γεώργιο",
    "nameEn": "Agios Georgios",
    "region": "attica_north",
    "oldLat": 37.963156,
    "oldLon": 23.539791,
    "newLat": 37.9631558,
    "newLon": 23.5397906,
    "distanceKm": 0.00004152405762423817,
    "nominatimName": "Άγιος Γεώργιος, Κοινότητα Σαλαμίνας, Δημοτική Ενότητα Σαλαμίνας, Δήμος Σαλαμίνας, Περιφερειακή Ενότητα Νήσων, Περιφέρεια Αττικής, Αποκεντρωμένη Διοίκηση Αττικής, Ελλάδα",
    "status": "ok"
  },
  {
    "tag": "Δροσιά",
    "nameEn": "Drosia",
    "region": "attica_north",
    "oldLat": 38.109001,
    "oldLon": 23.861361,
    "newLat": 38.1090006,
    "newLon": 23.8613611,
    "distanceKm": 2.9906955325064426,
    "nominatimName": "Δροσιά, Εφέδρων - Αναγέννηση, Δήμος Διονύσου, Περιφερειακή Ενότητα Ανατολικής Αττικής, Περιφέρεια Αττικής, Αποκεντρωμένη Διοίκηση Αττικής, 145 72, Ελλάδα",
    "status": "corrected"
  },
  {
    "tag": "Βίλια",
    "nameEn": "Vilia",
    "region": "attica_west",
    "oldLat": 38.167976,
    "oldLon": 23.337193,
    "newLat": 38.1679762,
    "newLon": 23.3371926,
    "distanceKm": 0.9186930839265172,
    "nominatimName": "Βίλια, Δημοτική Ενότητα Βιλίων, Δήμος Μάνδρας - Ειδυλλίας, Περιφερειακή Ενότητα Δυτικής Αττικής, Περιφέρεια Αττικής, Αποκεντρωμένη Διοίκηση Αττικής, 190 12, Ελλάδα",
    "status": "ok"
  },
  {
    "tag": "Προφήτη_Ηλία_Βιλίων",
    "nameEn": "Profitis Ilias Vilion",
    "region": "attica_west",
    "oldLat": 38.17,
    "oldLon": 23.34,
    "newLat": null,
    "newLon": null,
    "distanceKm": -1,
    "nominatimName": "",
    "status": "not_found"
  },
  {
    "tag": "Μάνδρα",
    "nameEn": "Mandra",
    "region": "attica_west",
    "oldLat": 38.07479,
    "oldLon": 23.496952,
    "newLat": 38.0747896,
    "newLon": 23.4969518,
    "distanceKm": 0.8007355336868203,
    "nominatimName": "Μάνδρα, Δημοτική Ενότητα Μάνδρας, Δήμος Μάνδρας - Ειδυλλίας, Περιφερειακή Ενότητα Δυτικής Αττικής, Περιφέρεια Αττικής, Αποκεντρωμένη Διοίκηση Αττικής, 196 00, Ελλάδα",
    "status": "ok"
  },
  {
    "tag": "Ψάθα",
    "nameEn": "Psatha",
    "region": "attica_west",
    "oldLat": 38.112583,
    "oldLon": 23.219878,
    "newLat": 38.1125827,
    "newLon": 23.2198776,
    "distanceKm": 2.806503409474472,
    "nominatimName": "Ψάθα, Κοινότητα Βιλίων, Δημοτική Ενότητα Βιλίων, Δήμος Μάνδρας - Ειδυλλίας, Περιφερειακή Ενότητα Δυτικής Αττικής, Περιφέρεια Αττικής, Αποκεντρωμένη Διοίκηση Αττικής, 190 12, Ελλάδα",
    "status": "corrected"
  },
  {
    "tag": "Αλεποχώρι",
    "nameEn": "Alepochori",
    "region": "attica_west",
    "oldLat": 38.087247,
    "oldLon": 23.186895,
    "newLat": 38.087247,
    "newLon": 23.1868952,
    "distanceKm": 8.132632112435246,
    "nominatimName": "Αλεποχώρι, Δημοτική Ενότητα Βιλίων, Δήμος Μάνδρας - Ειδυλλίας, Περιφερειακή Ενότητα Δυτικής Αττικής, Περιφέρεια Αττικής, Αποκεντρωμένη Διοίκηση Αττικής, 191 00, Ελλάδα",
    "status": "corrected"
  },
  {
    "tag": "Μέγαρα",
    "nameEn": "Megara",
    "region": "attica_west",
    "oldLat": 37.994,
    "oldLon": 23.348,
    "newLat": 37.9965887,
    "newLon": 23.3445017,
    "distanceKm": 0.4205127931485714,
    "nominatimName": "Μέγαρα, Δημοτική Ενότητα Μεγαρέων, Δήμος Μεγαρέων, Περιφερειακή Ενότητα Δυτικής Αττικής, Περιφέρεια Αττικής, Αποκεντρωμένη Διοίκηση Αττικής, 191 00, Ελλάδα",
    "status": "ok"
  },
  {
    "tag": "Βενίζα",
    "nameEn": "Veniza",
    "region": "attica_west",
    "oldLat": 38.08302,
    "oldLon": 23.255555,
    "newLat": 38.0830198,
    "newLon": 23.2555552,
    "distanceKm": 7.389566801865163,
    "nominatimName": "Βένιζα, Κοινότητα Βιλίων, Δημοτική Ενότητα Βιλίων, Δήμος Μάνδρας - Ειδυλλίας, Περιφερειακή Ενότητα Δυτικής Αττικής, Περιφέρεια Αττικής, Αποκεντρωμένη Διοίκηση Αττικής, 191 00, Ελλάδα",
    "status": "corrected"
  },
  {
    "tag": "ΑγίαΠαρασκευή",
    "nameEn": "Agia Paraskevi",
    "region": "attica_west",
    "oldLat": 38.142996,
    "oldLon": 23.27384,
    "newLat": 38.1429956,
    "newLon": 23.2738398,
    "distanceKm": 1.5422143601228706,
    "nominatimName": "Αγία Παρασκευή, Κοινότητα Βιλίων, Δημοτική Ενότητα Βιλίων, Δήμος Μάνδρας - Ειδυλλίας, Περιφερειακή Ενότητα Δυτικής Αττικής, Περιφέρεια Αττικής, Αποκεντρωμένη Διοίκηση Αττικής, Ελλάδα",
    "status": "corrected"
  },
  {
    "tag": "Βαθυχώρι",
    "nameEn": "Vathychori",
    "region": "attica_west",
    "oldLat": 38.115031,
    "oldLon": 23.26222,
    "newLat": 38.1150306,
    "newLon": 23.2622204,
    "distanceKm": 7.760432626194454,
    "nominatimName": "Κυκλικός Πύργος Βαθυχωρίου, Βιλίων - Πόρτο Γερμενού, Κρύο Πηγάδι, Κοινότητα Βιλίων, Δημοτική Ενότητα Βιλίων, Δήμος Μάνδρας - Ειδυλλίας, Περιφερειακή Ενότητα Δυτικής Αττικής, Περιφέρεια Αττικής, Αποκεντρωμένη Διοίκηση Αττικής, Ελλάδα",
    "status": "corrected"
  },
  {
    "tag": "ΚρύοΠηγάδι",
    "nameEn": "Kryo Pigadi",
    "region": "attica_west",
    "oldLat": 38.143538,
    "oldLon": 23.293611,
    "newLat": 38.1435377,
    "newLon": 23.2936112,
    "distanceKm": 2.6776581421125547,
    "nominatimName": "Κρύο Πηγάδι, Κοινότητα Βιλίων, Δημοτική Ενότητα Βιλίων, Δήμος Μάνδρας - Ειδυλλίας, Περιφερειακή Ενότητα Δυτικής Αττικής, Περιφέρεια Αττικής, Αποκεντρωμένη Διοίκηση Αττικής, Ελλάδα",
    "status": "corrected"
  },
  {
    "tag": "Δηλίζα",
    "nameEn": "Diliza",
    "region": "attica_west",
    "oldLat": 38.163,
    "oldLon": 23.346,
    "newLat": null,
    "newLon": null,
    "distanceKm": -1,
    "nominatimName": "",
    "status": "not_found"
  },
  {
    "tag": "Καμμένα",
    "nameEn": "Kammena",
    "region": "attica_west",
    "oldLat": 38.16,
    "oldLon": 23.355,
    "newLat": null,
    "newLon": null,
    "distanceKm": -1,
    "nominatimName": "",
    "status": "not_found"
  },
  {
    "tag": "Πεύκες",
    "nameEn": "Pefkes",
    "region": "attica_west",
    "oldLat": 38.118801,
    "oldLon": 23.41213,
    "newLat": 38.1188009,
    "newLon": 23.4121301,
    "distanceKm": 7.949130784093954,
    "nominatimName": "Πεύκης, Κοινότητα Μάνδρας, Δημοτική Ενότητα Μάνδρας, Δήμος Μάνδρας - Ειδυλλίας, Περιφερειακή Ενότητα Δυτικής Αττικής, Περιφέρεια Αττικής, Αποκεντρωμένη Διοίκηση Αττικής, 190 12, Ελλάδα",
    "status": "corrected"
  },
  {
    "tag": "Λινάρια",
    "nameEn": "Linaria",
    "region": "attica_west",
    "oldLat": 38.155,
    "oldLon": 23.335,
    "newLat": 37.6479797,
    "newLon": 21.6844251,
    "distanceKm": 155.40586408685118,
    "nominatimName": "Λιναριά, Δημοτική Ενότητα Αρχαίας Ολυμπίας, Δήμος Αρχαίας Ολυμπίας, Περιφερειακή Ενότητα Ηλείας, Περιφέρεια Δυτικής Ελλάδας, Αποκεντρωμένη Διοίκηση Πελοποννήσου, Δυτικής Ελλάδας και Ιονίου, 270 65, Ελλάδα",
    "status": "large_shift"
  },
  {
    "tag": "ΆσπραΣπίτια",
    "nameEn": "Aspra Spitia",
    "region": "attica_west",
    "oldLat": 38.162,
    "oldLon": 23.342,
    "newLat": 37.6149553,
    "newLon": 21.7749457,
    "distanceKm": 150.3679911276221,
    "nominatimName": "Άσπρα Σπίτια, Δημοτική Ενότητα Αρχαίας Ολυμπίας, Δήμος Αρχαίας Ολυμπίας, Περιφερειακή Ενότητα Ηλείας, Περιφέρεια Δυτικής Ελλάδας, Αποκεντρωμένη Διοίκηση Πελοποννήσου, Δυτικής Ελλάδας και Ιονίου, 270 65, Ελλάδα",
    "status": "large_shift"
  },
  {
    "tag": "Ερυθραίας",
    "nameEn": "Erythres",
    "region": "attica_west",
    "oldLat": 38.103154,
    "oldLon": 23.815524,
    "newLat": 38.1031541,
    "newLon": 23.8155242,
    "distanceKm": 0.000020733763127544785,
    "nominatimName": "Ερυθραίας, Δήμος Κηφισιάς, Περιφερειακή Ενότητα Βορείου Τομέα Αθηνών, Περιφέρεια Αττικής, Αποκεντρωμένη Διοίκηση Αττικής, 146 71, Ελλάδα",
    "status": "ok"
  },
  {
    "tag": "Μορτερού",
    "nameEn": "Morterou",
    "region": "attica_west",
    "oldLat": 38.21,
    "oldLon": 23.425,
    "newLat": null,
    "newLon": null,
    "distanceKm": -1,
    "nominatimName": "",
    "status": "not_found"
  },
  {
    "tag": "Μουριά",
    "nameEn": "Mouria",
    "region": "attica_west",
    "oldLat": 37.985805,
    "oldLon": 23.738746,
    "newLat": 37.9858055,
    "newLon": 23.7387457,
    "distanceKm": 0.00006150075868600983,
    "nominatimName": "Η Μουριά, 87, Χαριλάου Τρικούπη, Λυκαβηττός, Νεάπολη, 1η Κοινότητα Αθηνών, Αθήνα, Δήμος Αθηναίων, Περιφερειακή Ενότητα Κεντρικού Τομέα Αθηνών, Περιφέρεια Αττικής, Αποκεντρωμένη Διοίκηση Αττικής, 106 80, Ελλάδα",
    "status": "ok"
  },
  {
    "tag": "Λάλα",
    "nameEn": "Lala",
    "region": "ilia",
    "oldLat": 37.79927,
    "oldLon": 21.35236,
    "newLat": 37.7992705,
    "newLon": 21.3523598,
    "distanceKm": 0.000058308385680120685,
    "nominatimName": "Μάχης Λάλα, Amaliada, Δημοτική Ενότητα Αμαλιάδας, Δήμος Ήλιδας, Περιφερειακή Ενότητα Ηλείας, Περιφέρεια Δυτικής Ελλάδας, Αποκεντρωμένη Διοίκηση Πελοποννήσου, Δυτικής Ελλάδας και Ιονίου, 272 00, Ελλάδα",
    "status": "ok"
  },
  {
    "tag": "Αρχαία_Ολυμπία",
    "nameEn": "Ancient Olympia",
    "region": "ilia",
    "oldLat": 37.644143,
    "oldLon": 21.625277,
    "newLat": 37.6441431,
    "newLon": 21.6252773,
    "distanceKm": 0.7576558725374308,
    "nominatimName": "Αρχαία Ολυμπία, Δημοτική Ενότητα Αρχαίας Ολυμπίας, Δήμος Αρχαίας Ολυμπίας, Περιφερειακή Ενότητα Ηλείας, Περιφέρεια Δυτικής Ελλάδας, Αποκεντρωμένη Διοίκηση Πελοποννήσου, Δυτικής Ελλάδας και Ιονίου, 270 65, Ελλάδα",
    "status": "ok"
  },
  {
    "tag": "Νεμούτα",
    "nameEn": "Nemouta",
    "region": "ilia",
    "oldLat": 37.700741,
    "oldLon": 21.79184,
    "newLat": 37.7007409,
    "newLon": 21.79184,
    "distanceKm": 2.91743406230364,
    "nominatimName": "Νεμούτα, Δημοτική Ενότητα Φολόης, Δήμος Αρχαίας Ολυμπίας, Περιφερειακή Ενότητα Ηλείας, Περιφέρεια Δυτικής Ελλάδας, Αποκεντρωμένη Διοίκηση Πελοποννήσου, Δυτικής Ελλάδας και Ιονίου, 270 66, Ελλάδα",
    "status": "corrected"
  },
  {
    "tag": "Πύργο",
    "nameEn": "Pyrgos",
    "region": "ilia",
    "oldLat": 38.03233,
    "oldLon": 21.364142,
    "newLat": 38.0323299,
    "newLon": 21.3641425,
    "distanceKm": 0.00004518173500320242,
    "nominatimName": "ΚΤΕΛ Ηλείας, Πατρών Πύργου, Βαρδα, Καρβουναίικα, Βάρδα, Δήμος Ανδραβίδας - Κυλλήνης, Περιφερειακή Ενότητα Ηλείας, Περιφέρεια Δυτικής Ελλάδας, Αποκεντρωμένη Διοίκηση Πελοποννήσου, Δυτικής Ελλάδας και Ιονίου, 270 52, Ελλάδα",
    "status": "ok"
  },
  {
    "tag": "Πελόπιο",
    "nameEn": "Pelopio",
    "region": "ilia",
    "oldLat": 37.676605,
    "oldLon": 21.592175,
    "newLat": 37.6766053,
    "newLon": 21.5921747,
    "distanceKm": 5.853609268852799,
    "nominatimName": "Πελόπιο, Δημοτική Ενότητα Αρχαίας Ολυμπίας, Δήμος Αρχαίας Ολυμπίας, Περιφερειακή Ενότητα Ηλείας, Περιφέρεια Δυτικής Ελλάδας, Αποκεντρωμένη Διοίκηση Πελοποννήσου, Δυτικής Ελλάδας και Ιονίου, 270 60, Ελλάδα",
    "status": "corrected"
  },
  {
    "tag": "Κλαδέο",
    "nameEn": "Kladeos",
    "region": "ilia",
    "oldLat": 37.666486,
    "oldLon": 21.634863,
    "newLat": 37.6664861,
    "newLon": 21.6348626,
    "distanceKm": 2.8697873902388493,
    "nominatimName": "Κλάδεος, Κοσκινάς, Δημοτική Ενότητα Αρχαίας Ολυμπίας, Δήμος Αρχαίας Ολυμπίας, Περιφερειακή Ενότητα Ηλείας, Περιφέρεια Δυτικής Ελλάδας, Αποκεντρωμένη Διοίκηση Πελοποννήσου, Δυτικής Ελλάδας και Ιονίου, 270 65, Ελλάδα",
    "status": "corrected"
  },
  {
    "tag": "Καυκωνιά",
    "nameEn": "Kavkonia",
    "region": "ilia",
    "oldLat": 37.687501,
    "oldLon": 21.615827,
    "newLat": 37.6875013,
    "newLon": 21.615827,
    "distanceKm": 9.362637570305429,
    "nominatimName": "Καυκωνία, Δημοτική Ενότητα Αρχαίας Ολυμπίας, Δήμος Αρχαίας Ολυμπίας, Περιφερειακή Ενότητα Ηλείας, Περιφέρεια Δυτικής Ελλάδας, Αποκεντρωμένη Διοίκηση Πελοποννήσου, Δυτικής Ελλάδας και Ιονίου, 270 60, Ελλάδα",
    "status": "corrected"
  },
  {
    "tag": "Πλάτανο",
    "nameEn": "Platano",
    "region": "ilia",
    "oldLat": 37.63,
    "oldLon": 21.695,
    "newLat": null,
    "newLon": null,
    "distanceKm": -1,
    "nominatimName": "",
    "status": "not_found"
  },
  {
    "tag": "Κοσκινά",
    "nameEn": "Koskina",
    "region": "ilia",
    "oldLat": 37.606,
    "oldLon": 21.636,
    "newLat": null,
    "newLon": null,
    "distanceKm": -1,
    "nominatimName": "",
    "status": "not_found"
  },
  {
    "tag": "Μάγειρα",
    "nameEn": "Mageira",
    "region": "ilia",
    "oldLat": 37.655,
    "oldLon": 21.72,
    "newLat": null,
    "newLon": null,
    "distanceKm": -1,
    "nominatimName": "",
    "status": "not_found"
  },
  {
    "tag": "Χελιδόνι",
    "nameEn": "Chelidoni",
    "region": "ilia",
    "oldLat": 37.713713,
    "oldLon": 21.623382,
    "newLat": 37.7137134,
    "newLon": 21.623382,
    "distanceKm": 10.589279770348497,
    "nominatimName": "Χελιδόνι, Δημοτική Ενότητα Αρχαίας Ολυμπίας, Δήμος Αρχαίας Ολυμπίας, Περιφερειακή Ενότητα Ηλείας, Περιφέρεια Δυτικής Ελλάδας, Αποκεντρωμένη Διοίκηση Πελοποννήσου, Δυτικής Ελλάδας και Ιονίου, 270 60, Ελλάδα",
    "status": "corrected"
  },
  {
    "tag": "Λατζόι",
    "nameEn": "Latzoi",
    "region": "ilia",
    "oldLat": 37.708508,
    "oldLon": 21.560156,
    "newLat": 37.7085081,
    "newLon": 21.5601555,
    "distanceKm": 13.091461104556233,
    "nominatimName": "Λατζόι, Δήμος Πύργου, Περιφερειακή Ενότητα Ηλείας, Περιφέρεια Δυτικής Ελλάδας, Αποκεντρωμένη Διοίκηση Πελοποννήσου, Δυτικής Ελλάδας και Ιονίου, 270 60, Ελλάδα",
    "status": "corrected"
  },
  {
    "tag": "Ξηρόκαμπο",
    "nameEn": "Xirokampo",
    "region": "ilia",
    "oldLat": 37.673,
    "oldLon": 21.74,
    "newLat": null,
    "newLon": null,
    "distanceKm": -1,
    "nominatimName": "",
    "status": "not_found"
  },
  {
    "tag": "Υψηλό",
    "nameEn": "Ypsilo",
    "region": "ilia",
    "oldLat": 37.637919,
    "oldLon": 21.750342,
    "newLat": 37.6379191,
    "newLon": 21.7503425,
    "distanceKm": 3.3003205397411346,
    "nominatimName": "Υψηλό, Δημοτική Ενότητα Αρχαίας Ολυμπίας, Δήμος Αρχαίας Ολυμπίας, Περιφερειακή Ενότητα Ηλείας, Περιφέρεια Δυτικής Ελλάδας, Αποκεντρωμένη Διοίκηση Πελοποννήσου, Δυτικής Ελλάδας και Ιονίου, 270 65, Ελλάδα",
    "status": "corrected"
  },
  {
    "tag": "Λάσδικα",
    "nameEn": "Lasdika",
    "region": "ilia",
    "oldLat": 37.66,
    "oldLon": 21.73,
    "newLat": null,
    "newLon": null,
    "distanceKm": -1,
    "nominatimName": "",
    "status": "not_found"
  },
  {
    "tag": "Αμπάρι",
    "nameEn": "Ambari",
    "region": "ilia",
    "oldLat": 37.668,
    "oldLon": 21.725,
    "newLat": null,
    "newLon": null,
    "distanceKm": -1,
    "nominatimName": "",
    "status": "not_found"
  },
  {
    "tag": "Βασιλάκι",
    "nameEn": "Vasilaki",
    "region": "ilia",
    "oldLat": 37.649409,
    "oldLon": 21.760836,
    "newLat": 37.6494089,
    "newLon": 21.7608362,
    "distanceKm": 3.8901979125426274,
    "nominatimName": "Βασιλάκι, Δημοτική Ενότητα Αρχαίας Ολυμπίας, Δήμος Αρχαίας Ολυμπίας, Περιφερειακή Ενότητα Ηλείας, Περιφέρεια Δυτικής Ελλάδας, Αποκεντρωμένη Διοίκηση Πελοποννήσου, Δυτικής Ελλάδας και Ιονίου, 270 65, Ελλάδα",
    "status": "corrected"
  },
  {
    "tag": "Πανόπουλο",
    "nameEn": "Panopoulo",
    "region": "ilia",
    "oldLat": 37.657,
    "oldLon": 21.704,
    "newLat": null,
    "newLon": null,
    "distanceKm": -1,
    "nominatimName": "",
    "status": "not_found"
  },
  {
    "tag": "Δούκα",
    "nameEn": "Douka",
    "region": "ilia",
    "oldLat": 37.722256,
    "oldLon": 21.704521,
    "newLat": 37.722256,
    "newLon": 21.7045208,
    "distanceKm": 7.3966671256151395,
    "nominatimName": "Νεκροταφείο Δούκα, Δούκας, Δημοτική Ενότητα Φολόης, Δήμος Αρχαίας Ολυμπίας, Περιφερειακή Ενότητα Ηλείας, Περιφέρεια Δυτικής Ελλάδας, Αποκεντρωμένη Διοίκηση Πελοποννήσου, Δυτικής Ελλάδας και Ιονίου, 270 66, Ελλάδα",
    "status": "corrected"
  },
  {
    "tag": "Άνω_Κάτω_Λούβρο",
    "nameEn": "Ano Kato Louvro",
    "region": "ilia",
    "oldLat": 37.67,
    "oldLon": 21.735,
    "newLat": null,
    "newLon": null,
    "distanceKm": -1,
    "nominatimName": "",
    "status": "not_found"
  },
  {
    "tag": "Τσαπαρέικα",
    "nameEn": "Tsapareika",
    "region": "ilia",
    "oldLat": 37.783331,
    "oldLon": 21.43728,
    "newLat": 37.7833311,
    "newLon": 21.4372805,
    "distanceKm": 0.000045325632354757435,
    "nominatimName": "Γερακίου-Περιστερίου Δ.Αμαλιάδας:θέσεις Κεραμυδά,Ονιά,Βρεστά,Τσαπαρέικα,Κάστρο,Φούρνοι,Φουρνολάγκαδο,Παλαιολάνθη,Πάτωμα κλπ, Δήμος Πύργου, Δήμος Ήλιδας, Περιφερειακή Ενότητα Ηλείας, Περιφέρεια Δυτικής Ελλάδας, Αποκεντρωμένη Διοίκηση Πελοποννήσου, Δυτικής Ελλάδας και Ιονίου, Ελλάδα",
    "status": "ok"
  },
  {
    "tag": "Αχλαδινή",
    "nameEn": "Achladini",
    "region": "ilia",
    "oldLat": 37.72156,
    "oldLon": 21.78361,
    "newLat": 37.7215596,
    "newLon": 21.7836103,
    "distanceKm": 5.2083882469065825,
    "nominatimName": "Αχλαδινή, Δημοτική Ενότητα Φολόης, Δήμος Αρχαίας Ολυμπίας, Περιφερειακή Ενότητα Ηλείας, Περιφέρεια Δυτικής Ελλάδας, Αποκεντρωμένη Διοίκηση Πελοποννήσου, Δυτικής Ελλάδας και Ιονίου, 270 66, Ελλάδα",
    "status": "corrected"
  },
  {
    "tag": "Μηλιές",
    "nameEn": "Milies",
    "region": "ilia",
    "oldLat": 37.734833,
    "oldLon": 21.694362,
    "newLat": 37.7348326,
    "newLon": 21.6943622,
    "distanceKm": 8.192561328549116,
    "nominatimName": "Μηλιές, Δημοτική Ενότητα Φολόης, Δήμος Αρχαίας Ολυμπίας, Περιφερειακή Ενότητα Ηλείας, Περιφέρεια Δυτικής Ελλάδας, Αποκεντρωμένη Διοίκηση Πελοποννήσου, Δυτικής Ελλάδας και Ιονίου, 270 66, Ελλάδα",
    "status": "corrected"
  },
  {
    "tag": "Νεράιδα",
    "nameEn": "Neraida",
    "region": "ilia",
    "oldLat": 37.734078,
    "oldLon": 21.662653,
    "newLat": 37.7340777,
    "newLon": 21.6626532,
    "distanceKm": 9.60427085049938,
    "nominatimName": "Νεράιδα, Δημοτική Ενότητα Φολόης, Δήμος Αρχαίας Ολυμπίας, Περιφερειακή Ενότητα Ηλείας, Περιφέρεια Δυτικής Ελλάδας, Αποκεντρωμένη Διοίκηση Πελοποννήσου, Δυτικής Ελλάδας και Ιονίου, 270 66, Ελλάδα",
    "status": "corrected"
  },
  {
    "tag": "Άσπρα_Σπίτια",
    "nameEn": "Aspra Spitia",
    "region": "ilia",
    "oldLat": 37.614955,
    "oldLon": 21.774946,
    "newLat": 37.6149553,
    "newLon": 21.7749457,
    "distanceKm": 7.00708523509431,
    "nominatimName": "Άσπρα Σπίτια, Δημοτική Ενότητα Αρχαίας Ολυμπίας, Δήμος Αρχαίας Ολυμπίας, Περιφερειακή Ενότητα Ηλείας, Περιφέρεια Δυτικής Ελλάδας, Αποκεντρωμένη Διοίκηση Πελοποννήσου, Δυτικής Ελλάδας και Ιονίου, 270 65, Ελλάδα",
    "status": "corrected"
  },
  {
    "tag": "Καπελλίτσα",
    "nameEn": "Kapellitsa",
    "region": "ilia",
    "oldLat": 37.623748,
    "oldLon": 21.810263,
    "newLat": 37.6237475,
    "newLon": 21.8102631,
    "distanceKm": 8.6304700837322,
    "nominatimName": "Καπελλίτσα, Δημοτική Ενότητα Τροπαίων, Δήμος Γορτυνίας, Περιφερειακή Ενότητα Αρκαδίας, Περιφέρεια Πελοποννήσου, Αποκεντρωμένη Διοίκηση Πελοποννήσου, Δυτικής Ελλάδας και Ιονίου, 220 08, Ελλάδα",
    "status": "corrected"
  },
  {
    "tag": "Σέκουλα",
    "nameEn": "Sekoula",
    "region": "ilia",
    "oldLat": 37.66,
    "oldLon": 21.728,
    "newLat": null,
    "newLon": null,
    "distanceKm": -1,
    "nominatimName": "",
    "status": "not_found"
  },
  {
    "tag": "Λιβαδάκι",
    "nameEn": "Livadaki",
    "region": "ilia",
    "oldLat": 37.530259,
    "oldLon": 21.814153,
    "newLat": 37.5302585,
    "newLon": 21.8141533,
    "distanceKm": 0.00006157036279299769,
    "nominatimName": "Λιβαδάκι, Δήμος Ανδρίτσαινας - Κρεστενών, Περιφερειακή Ενότητα Ηλείας, Περιφέρεια Δυτικής Ελλάδας, Αποκεντρωμένη Διοίκηση Πελοποννήσου, Δυτικής Ελλάδας και Ιονίου, 270 62, Ελλάδα",
    "status": "ok"
  },
  {
    "tag": "Ιστιαία",
    "nameEn": "Istiaia",
    "region": "evia",
    "oldLat": 38.953464,
    "oldLon": 23.150958,
    "newLat": 38.9534641,
    "newLon": 23.1509582,
    "distanceKm": 0.8684991691836607,
    "nominatimName": "Ιστιαία, Δήμος Ιστιαίας-Αιδηψού, Περιφερειακή Ενότητα Ευβοίας, Περιφέρεια Στερεάς Ελλάδας, Αποκεντρωμένη Διοίκηση Θεσσαλίας - Στερεάς Ελλάδος, 342 00, Ελλάδα",
    "status": "ok"
  },
  {
    "tag": "Λίμνη",
    "nameEn": "Limni",
    "region": "evia",
    "oldLat": 38.765075,
    "oldLon": 23.317626,
    "newLat": 38.7650752,
    "newLon": 23.3176259,
    "distanceKm": 2.0716384634197587,
    "nominatimName": "Λίμνη, Δήμος Μαντουδίου - Λίμνης - Αγίας Άννας, Περιφερειακή Ενότητα Ευβοίας, Περιφέρεια Στερεάς Ελλάδας, Αποκεντρωμένη Διοίκηση Θεσσαλίας - Στερεάς Ελλάδος, 340 05, Ελλάδα",
    "status": "corrected"
  },
  {
    "tag": "Πευκί",
    "nameEn": "Pefki",
    "region": "evia",
    "oldLat": 39.008267,
    "oldLon": 23.210491,
    "newLat": 39.0082668,
    "newLon": 23.2104909,
    "distanceKm": 7.04505447222021,
    "nominatimName": "Πευκί, Δήμος Ιστιαίας-Αιδηψού, Περιφερειακή Ενότητα Ευβοίας, Περιφέρεια Στερεάς Ελλάδας, Αποκεντρωμένη Διοίκηση Θεσσαλίας - Στερεάς Ελλάδος, 342 00, Ελλάδα",
    "status": "corrected"
  },
  {
    "tag": "Ροβιές",
    "nameEn": "Rovies",
    "region": "evia",
    "oldLat": 38.811883,
    "oldLon": 23.227968,
    "newLat": 38.8118829,
    "newLon": 23.2279683,
    "distanceKm": 2.2958970734809334,
    "nominatimName": "Ροβιές, Δήμος Μαντουδίου - Λίμνης - Αγίας Άννας, Περιφερειακή Ενότητα Ευβοίας, Περιφέρεια Στερεάς Ελλάδας, Αποκεντρωμένη Διοίκηση Θεσσαλίας - Στερεάς Ελλάδος, 340 05, Ελλάδα",
    "status": "corrected"
  },
  {
    "tag": "ΑγίαΆννα",
    "nameEn": "Agia Anna",
    "region": "evia",
    "oldLat": 38.858705,
    "oldLon": 23.398708,
    "newLat": 38.8587051,
    "newLon": 23.3987082,
    "distanceKm": 10.625751096410776,
    "nominatimName": "Αγία Άννα, Δήμος Μαντουδίου - Λίμνης - Αγίας Άννας, Περιφερειακή Ενότητα Ευβοίας, Περιφέρεια Στερεάς Ελλάδας, Αποκεντρωμένη Διοίκηση Θεσσαλίας - Στερεάς Ελλάδος, 340 10, Ελλάδα",
    "status": "corrected"
  },
  {
    "tag": "Αβγαριά_Εύβοιας",
    "nameEn": "Avgaria",
    "region": "evia",
    "oldLat": 38.949759,
    "oldLon": 23.192778,
    "newLat": 38.9497585,
    "newLon": 23.1927783,
    "distanceKm": 8.663971197377373,
    "nominatimName": "Αβγαριά, Δήμος Ιστιαίας-Αιδηψού, Περιφερειακή Ενότητα Ευβοίας, Περιφέρεια Στερεάς Ελλάδας, Αποκεντρωμένη Διοίκηση Θεσσαλίας - Στερεάς Ελλάδος, 342 00, Ελλάδα",
    "status": "corrected"
  },
  {
    "tag": "Κεχριές",
    "nameEn": "Kechries",
    "region": "evia",
    "oldLat": 38.81228,
    "oldLon": 23.368835,
    "newLat": 38.8122802,
    "newLon": 23.368835,
    "distanceKm": 11.926298636665916,
    "nominatimName": "Κεχριές, Δήμος Μαντουδίου - Λίμνης - Αγίας Άννας, Περιφερειακή Ενότητα Ευβοίας, Περιφέρεια Στερεάς Ελλάδας, Αποκεντρωμένη Διοίκηση Θεσσαλίας - Στερεάς Ελλάδος, 340 05, Ελλάδα",
    "status": "corrected"
  },
  {
    "tag": "Γαλατσάδες",
    "nameEn": "Galatsades",
    "region": "evia",
    "oldLat": 38.892497,
    "oldLon": 23.171142,
    "newLat": 38.8924967,
    "newLon": 23.1711424,
    "distanceKm": 1.3076964312158832,
    "nominatimName": "Γαλατσάδες, Δήμος Ιστιαίας-Αιδηψού, Περιφερειακή Ενότητα Ευβοίας, Περιφέρεια Στερεάς Ελλάδας, Αποκεντρωμένη Διοίκηση Θεσσαλίας - Στερεάς Ελλάδος, 342 00, Ελλάδα",
    "status": "corrected"
  },
  {
    "tag": "Αγκάλη",
    "nameEn": "Agali",
    "region": "evia",
    "oldLat": 38.862253,
    "oldLon": 23.445513,
    "newLat": 38.8622529,
    "newLon": 23.4455129,
    "distanceKm": 0.000014092860235618932,
    "nominatimName": "Αγκάλη, Παραλία Αγίας Άννας, Δήμος Μαντουδίου - Λίμνης - Αγίας Άννας, Περιφερειακή Ενότητα Ευβοίας, Περιφέρεια Στερεάς Ελλάδας, Αποκεντρωμένη Διοίκηση Θεσσαλίας - Στερεάς Ελλάδος, 340 10, Ελλάδα",
    "status": "ok"
  },
  {
    "tag": "Αρτεμίσιο",
    "nameEn": "Artemisio",
    "region": "evia",
    "oldLat": 39.011569,
    "oldLon": 23.22637,
    "newLat": 39.0115692,
    "newLon": 23.2263703,
    "distanceKm": 3.2490685846953418,
    "nominatimName": "Αρτεμίσιο, Δήμος Ιστιαίας-Αιδηψού, Περιφερειακή Ενότητα Ευβοίας, Περιφέρεια Στερεάς Ελλάδας, Αποκεντρωμένη Διοίκηση Θεσσαλίας - Στερεάς Ελλάδος, 342 00, Ελλάδα",
    "status": "corrected"
  },
  {
    "tag": "Μαντούδι",
    "nameEn": "Mantoudi",
    "region": "evia",
    "oldLat": 38.79866,
    "oldLon": 23.478772,
    "newLat": 38.7986603,
    "newLon": 23.478772,
    "distanceKm": 4.226861098534067,
    "nominatimName": "Μαντούδι, Δήμος Μαντουδίου - Λίμνης - Αγίας Άννας, Περιφερειακή Ενότητα Ευβοίας, Περιφέρεια Στερεάς Ελλάδας, Αποκεντρωμένη Διοίκηση Θεσσαλίας - Στερεάς Ελλάδος, 340 04, Ελλάδα",
    "status": "corrected"
  },
  {
    "tag": "Αιδηψού",
    "nameEn": "Aidipsos",
    "region": "evia",
    "oldLat": 38.857397,
    "oldLon": 23.042258,
    "newLat": 38.8573975,
    "newLon": 23.0422579,
    "distanceKm": 1.8297315895615323,
    "nominatimName": "Λουτρά Αιδηψού, Δήμος Ιστιαίας-Αιδηψού, Περιφερειακή Ενότητα Ευβοίας, Περιφέρεια Στερεάς Ελλάδας, Αποκεντρωμένη Διοίκηση Θεσσαλίας - Στερεάς Ελλάδος, 343 00, Ελλάδα",
    "status": "corrected"
  },
  {
    "tag": "Λουτρών_Αιδηψού",
    "nameEn": "Loutra Aidipsou",
    "region": "evia",
    "oldLat": 38.969735,
    "oldLon": 23.162106,
    "newLat": 38.9697346,
    "newLon": 23.1621063,
    "distanceKm": 14.623613158383336,
    "nominatimName": "Χαλκίδας - Λουτρών Αιδηψού, Νέα Σινασός, Δήμος Ιστιαίας-Αιδηψού, Περιφερειακή Ενότητα Ευβοίας, Περιφέρεια Στερεάς Ελλάδας, Αποκεντρωμένη Διοίκηση Θεσσαλίας - Στερεάς Ελλάδος, 342 00, Ελλάδα",
    "status": "corrected"
  },
  {
    "tag": "Βλυχάδα",
    "nameEn": "Vlychada",
    "region": "evia",
    "oldLat": 38.582774,
    "oldLon": 23.298735,
    "newLat": 38.5827737,
    "newLon": 23.2987351,
    "distanceKm": 0.00003447234189645737,
    "nominatimName": "Βλυχάδα, Κοινότητα Λάρυμνας, Δημοτική Ενότητα Οπουντίων, Δήμος Λοκρών, Περιφερειακή Ενότητα Φθιώτιδας, Περιφέρεια Στερεάς Ελλάδας, Αποκεντρωμένη Διοίκηση Θεσσαλίας - Στερεάς Ελλάδος, 350 12, Ελλάδα",
    "status": "ok"
  },
  {
    "tag": "Βουλίκι",
    "nameEn": "Vouliki",
    "region": "evia",
    "oldLat": 38.828,
    "oldLon": 23.186,
    "newLat": null,
    "newLon": null,
    "distanceKm": -1,
    "nominatimName": "",
    "status": "not_found"
  },
  {
    "tag": "Κούλουρος",
    "nameEn": "Koulouros",
    "region": "evia",
    "oldLat": 38.85899,
    "oldLon": 23.254513,
    "newLat": 38.85899,
    "newLon": 23.2545132,
    "distanceKm": 4.153265698227254,
    "nominatimName": "Κούλουρος, Δήμος Μαντουδίου - Λίμνης - Αγίας Άννας, Περιφερειακή Ενότητα Ευβοίας, Περιφέρεια Στερεάς Ελλάδας, Αποκεντρωμένη Διοίκηση Θεσσαλίας - Στερεάς Ελλάδος, 340 05, Ελλάδα",
    "status": "corrected"
  },
  {
    "tag": "Μαρούλι",
    "nameEn": "Marouli",
    "region": "evia",
    "oldLat": 38.869432,
    "oldLon": 23.242145,
    "newLat": 38.8694323,
    "newLon": 23.2421449,
    "distanceKm": 9.868360479195683,
    "nominatimName": "Μαρούλι, Δήμος Μαντουδίου - Λίμνης - Αγίας Άννας, Περιφερειακή Ενότητα Ευβοίας, Περιφέρεια Στερεάς Ελλάδας, Αποκεντρωμένη Διοίκηση Θεσσαλίας - Στερεάς Ελλάδος, 340 05, Ελλάδα",
    "status": "corrected"
  },
  {
    "tag": "Κεραμεία",
    "nameEn": "Kerameia",
    "region": "evia",
    "oldLat": 38.835697,
    "oldLon": 23.38846,
    "newLat": 38.8356972,
    "newLon": 23.3884603,
    "distanceKm": 11.910762711620182,
    "nominatimName": "Κεράμεια, Δήμος Μαντουδίου - Λίμνης - Αγίας Άννας, Περιφερειακή Ενότητα Ευβοίας, Περιφέρεια Στερεάς Ελλάδας, Αποκεντρωμένη Διοίκηση Θεσσαλίας - Στερεάς Ελλάδος, 340 10, Ελλάδα",
    "status": "corrected"
  },
  {
    "tag": "Παλαιόβρυση",
    "nameEn": "Palaiovrysi",
    "region": "evia",
    "oldLat": 38.855619,
    "oldLon": 23.393641,
    "newLat": 38.8556191,
    "newLon": 23.3936412,
    "distanceKm": 13.125043768645732,
    "nominatimName": "Παλαιόβρυση, Δήμος Μαντουδίου - Λίμνης - Αγίας Άννας, Περιφερειακή Ενότητα Ευβοίας, Περιφέρεια Στερεάς Ελλάδας, Αποκεντρωμένη Διοίκηση Θεσσαλίας - Στερεάς Ελλάδος, 340 10, Ελλάδα",
    "status": "corrected"
  },
  {
    "tag": "Σκεπαστή",
    "nameEn": "Skepasti",
    "region": "evia",
    "oldLat": 38.83406,
    "oldLon": 23.364559,
    "newLat": 38.8340605,
    "newLon": 23.3645592,
    "distanceKm": 0.000058233822208265335,
    "nominatimName": "Σκεπαστή, Δήμος Μαντουδίου - Λίμνης - Αγίας Άννας, Περιφερειακή Ενότητα Ευβοίας, Περιφέρεια Στερεάς Ελλάδας, Αποκεντρωμένη Διοίκηση Θεσσαλίας - Στερεάς Ελλάδος, 340 05, Ελλάδα",
    "status": "ok"
  },
  {
    "tag": "Κουρκουλοί",
    "nameEn": "Kourkouloi",
    "region": "evia",
    "oldLat": 38.832993,
    "oldLon": 23.340848,
    "newLat": 38.8329934,
    "newLon": 23.3408483,
    "distanceKm": 11.848596582286973,
    "nominatimName": "Κουρκουλοί, Δήμος Μαντουδίου - Λίμνης - Αγίας Άννας, Περιφερειακή Ενότητα Ευβοίας, Περιφέρεια Στερεάς Ελλάδας, Αποκεντρωμένη Διοίκηση Θεσσαλίας - Στερεάς Ελλάδος, 340 05, Ελλάδα",
    "status": "corrected"
  },
  {
    "tag": "Λεκούνα",
    "nameEn": "Lekouna",
    "region": "evia",
    "oldLat": 38.649399,
    "oldLon": 23.238804,
    "newLat": 38.6493994,
    "newLon": 23.238804,
    "distanceKm": 0.00004447797038750991,
    "nominatimName": "Λεκούνα, Κοινότητα Μαλεσίνας, Δημοτική Ενότητα Μαλεσίνης, Δήμος Λοκρών, Περιφερειακή Ενότητα Φθιώτιδας, Περιφέρεια Στερεάς Ελλάδας, Αποκεντρωμένη Διοίκηση Θεσσαλίας - Στερεάς Ελλάδος, 350 01, Ελλάδα",
    "status": "ok"
  },
  {
    "tag": "Κάτω_Μονοκαρυά",
    "nameEn": "Kato Monokarya",
    "region": "evia",
    "oldLat": 38.929143,
    "oldLon": 23.207204,
    "newLat": 38.9291427,
    "newLon": 23.2072039,
    "distanceKm": 8.593759147485903,
    "nominatimName": "Κάτω Μονοκαρυά, Δήμος Ιστιαίας-Αιδηψού, Περιφερειακή Ενότητα Ευβοίας, Περιφέρεια Στερεάς Ελλάδας, Αποκεντρωμένη Διοίκηση Θεσσαλίας - Στερεάς Ελλάδος, 342 00, Ελλάδα",
    "status": "corrected"
  },
  {
    "tag": "Μονοκαρυά",
    "nameEn": "Monokarya",
    "region": "evia",
    "oldLat": 38.924529,
    "oldLon": 23.208727,
    "newLat": 38.9245285,
    "newLon": 23.2087272,
    "distanceKm": 7.816711283759093,
    "nominatimName": "Μονοκαρυά, Δήμος Ιστιαίας-Αιδηψού, Περιφερειακή Ενότητα Ευβοίας, Περιφέρεια Στερεάς Ελλάδας, Αποκεντρωμένη Διοίκηση Θεσσαλίας - Στερεάς Ελλάδος, 342 00, Ελλάδα",
    "status": "corrected"
  },
  {
    "tag": "Καματριάδες",
    "nameEn": "Kamatriades",
    "region": "evia",
    "oldLat": 38.893826,
    "oldLon": 23.18244,
    "newLat": 38.8938263,
    "newLon": 23.1824395,
    "distanceKm": 0.9133933210168868,
    "nominatimName": "Καματριάδες, Δήμος Ιστιαίας-Αιδηψού, Περιφερειακή Ενότητα Ευβοίας, Περιφέρεια Στερεάς Ελλάδας, Αποκεντρωμένη Διοίκηση Θεσσαλίας - Στερεάς Ελλάδος, 342 00, Ελλάδα",
    "status": "ok"
  },
  {
    "tag": "Γούβες",
    "nameEn": "Gouves",
    "region": "evia",
    "oldLat": 39.004063,
    "oldLon": 23.246227,
    "newLat": 39.0040631,
    "newLon": 23.2462266,
    "distanceKm": 8.083560452433215,
    "nominatimName": "Γούβες, Δήμος Ιστιαίας-Αιδηψού, Περιφερειακή Ενότητα Ευβοίας, Περιφέρεια Στερεάς Ελλάδας, Αποκεντρωμένη Διοίκηση Θεσσαλίας - Στερεάς Ελλάδος, 342 00, Ελλάδα",
    "status": "corrected"
  },
  {
    "tag": "Ασμήνιο",
    "nameEn": "Asminio",
    "region": "evia",
    "oldLat": 39.002623,
    "oldLon": 23.197843,
    "newLat": 39.0026228,
    "newLon": 23.1978432,
    "distanceKm": 9.189128570949077,
    "nominatimName": "Ασμήνιο, Δήμος Ιστιαίας-Αιδηψού, Περιφερειακή Ενότητα Ευβοίας, Περιφέρεια Στερεάς Ελλάδας, Αποκεντρωμένη Διοίκηση Θεσσαλίας - Στερεάς Ελλάδος, 342 00, Ελλάδα",
    "status": "corrected"
  },
  {
    "tag": "Αγιά",
    "nameEn": "Agia",
    "region": "evia",
    "oldLat": 38.87662,
    "oldLon": 23.43626,
    "newLat": 38.8766199,
    "newLon": 23.4362603,
    "distanceKm": 14.41183120210538,
    "nominatimName": "Παραλία Αγίας Άννας, Δήμος Μαντουδίου - Λίμνης - Αγίας Άννας, Περιφερειακή Ενότητα Ευβοίας, Περιφέρεια Στερεάς Ελλάδας, Αποκεντρωμένη Διοίκηση Θεσσαλίας - Στερεάς Ελλάδος, 340 10, Ελλάδα",
    "status": "corrected"
  },
  {
    "tag": "Βρυσάκι",
    "nameEn": "Vrysaki",
    "region": "evia",
    "oldLat": 38.484621,
    "oldLon": 23.489087,
    "newLat": 38.4846212,
    "newLon": 23.4890874,
    "distanceKm": 0.000041312757772325994,
    "nominatimName": "Βρυσάκι, Δημοτική Κοινότητα Δροσιάς, Δημοτική Ενότητα Ανθηδώνος, Δήμος Χαλκιδέων, Περιφερειακή Ενότητα Ευβοίας, Περιφέρεια Στερεάς Ελλάδας, Αποκεντρωμένη Διοίκηση Θεσσαλίας - Στερεάς Ελλάδος, Ελλάδα",
    "status": "ok"
  },
  {
    "tag": "Καπιτένια",
    "nameEn": "Kapitenia",
    "region": "evia",
    "oldLat": 38.875,
    "oldLon": 23.26,
    "newLat": null,
    "newLon": null,
    "distanceKm": -1,
    "nominatimName": "",
    "status": "not_found"
  },
  {
    "tag": "Μεσοχώρια",
    "nameEn": "Mesochoria",
    "region": "evia",
    "oldLat": 38.831,
    "oldLon": 23.262,
    "newLat": 38.2501448,
    "newLon": 24.2108449,
    "distanceKm": 104.7931026925618,
    "nominatimName": "Μεσοχώρια, Δημοτική Ενότητα Στυραίων, Δήμος Καρύστου, Περιφερειακή Ενότητα Ευβοίας, Περιφέρεια Στερεάς Ελλάδας, Αποκεντρωμένη Διοίκηση Θεσσαλίας - Στερεάς Ελλάδος, 340 15, Ελλάδα",
    "status": "large_shift"
  },
  {
    "tag": "Ελαία",
    "nameEn": "Elaia",
    "region": "fokida",
    "oldLat": 38.429,
    "oldLon": 22.434,
    "newLat": null,
    "newLon": null,
    "distanceKm": -1,
    "nominatimName": "",
    "status": "not_found"
  },
  {
    "tag": "Καλλιθέα",
    "nameEn": "Kallithea",
    "region": "fokida",
    "oldLat": 38.391535,
    "oldLon": 22.140735,
    "newLat": 38.3915353,
    "newLon": 22.1407352,
    "distanceKm": 0.00003763792612534258,
    "nominatimName": "Καλλιθέα, Δημοτική Ενότητα Τολοφώνος, Δήμος Δωρίδος, Περιφερειακή Ενότητα Φωκίδας, Περιφέρεια Στερεάς Ελλάδας, Αποκεντρωμένη Διοίκηση Θεσσαλίας - Στερεάς Ελλάδος, 330 58, Ελλάδα",
    "status": "ok"
  },
  {
    "tag": "Άγιο_Σπυρίδωνα",
    "nameEn": "Agios Spyridonas",
    "region": "fokida",
    "oldLat": 38.425,
    "oldLon": 22.43,
    "newLat": null,
    "newLon": null,
    "distanceKm": -1,
    "nominatimName": "",
    "status": "not_found"
  },
  {
    "tag": "ΆγιοιΠάντες",
    "nameEn": "Agioi Pantes",
    "region": "fokida",
    "oldLat": 38.368039,
    "oldLon": 22.295024,
    "newLat": 38.3680386,
    "newLon": 22.2950239,
    "distanceKm": 13.260040454290179,
    "nominatimName": "Άγιοι Πάντες, Δημοτική Ενότητα Γαλαξιδίου, Δήμος Δελφών, Περιφερειακή Ενότητα Φωκίδας, Περιφέρεια Στερεάς Ελλάδας, Αποκεντρωμένη Διοίκηση Θεσσαλίας - Στερεάς Ελλάδος, 330 58, Ελλάδα",
    "status": "corrected"
  },
  {
    "tag": "ΌρμοςΛεμονιάς",
    "nameEn": "Ormos Lemonias",
    "region": "fokida",
    "oldLat": 38.3627,
    "oldLon": 22.249479,
    "newLat": 38.3627002,
    "newLon": 22.2494786,
    "distanceKm": 0.000041362340244504725,
    "nominatimName": "Όρμος Λεμονιάς, Kοινότητα Πανόρμου, Δημοτική Ενότητα Τολοφώνος, Δήμος Δωρίδος, Περιφερειακή Ενότητα Φωκίδας, Περιφέρεια Στερεάς Ελλάδας, Αποκεντρωμένη Διοίκηση Θεσσαλίας - Στερεάς Ελλάδος, 330 58, Ελλάδα",
    "status": "ok"
  },
  {
    "tag": "Πάνορμος",
    "nameEn": "Panormos",
    "region": "fokida",
    "oldLat": 38.373051,
    "oldLon": 22.249408,
    "newLat": 38.3730512,
    "newLon": 22.2494079,
    "distanceKm": 14.769118165515106,
    "nominatimName": "Πάνορμος, Δημοτική Ενότητα Τολοφώνος, Δήμος Δωρίδος, Περιφερειακή Ενότητα Φωκίδας, Περιφέρεια Στερεάς Ελλάδας, Αποκεντρωμένη Διοίκηση Θεσσαλίας - Στερεάς Ελλάδος, 330 58, Ελλάδα",
    "status": "corrected"
  },
  {
    "tag": "Ιτέα",
    "nameEn": "Itea",
    "region": "fokida",
    "oldLat": 38.432,
    "oldLon": 22.422,
    "newLat": 38.4334754,
    "newLon": 22.4239321,
    "distanceKm": 0.2350254531773466,
    "nominatimName": "Ιτέα, Δημοτική Ενότητα Ιτέας, Δήμος Δελφών, Περιφερειακή Ενότητα Φωκίδας, Περιφέρεια Στερεάς Ελλάδας, Αποκεντρωμένη Διοίκηση Θεσσαλίας - Στερεάς Ελλάδος, 332 00, Ελλάδα",
    "status": "ok"
  },
  {
    "tag": "Δίπορο",
    "nameEn": "Diporo",
    "region": "grevena",
    "oldLat": 39.990738,
    "oldLon": 21.654939,
    "newLat": 39.9907379,
    "newLon": 21.6549392,
    "distanceKm": 0.000020345734131679956,
    "nominatimName": "Δίπορο, Δήμος Γρεβενών, Περιφερειακή Ενότητα Γρεβενών, Αποκεντρωμένη Διοίκηση Ηπείρου - Δυτικής Μακεδονίας, 511 00, Ελλάδα",
    "status": "ok"
  },
  {
    "tag": "Νησί",
    "nameEn": "Nisi",
    "region": "grevena",
    "oldLat": 40.006337,
    "oldLon": 21.606584,
    "newLat": 40.0063365,
    "newLon": 21.6065836,
    "distanceKm": 0.00006520560250448673,
    "nominatimName": "Νησί, Δήμος Γρεβενών, Περιφερειακή Ενότητα Γρεβενών, Αποκεντρωμένη Διοίκηση Ηπείρου - Δυτικής Μακεδονίας, 511 00, Ελλάδα",
    "status": "ok"
  },
  {
    "tag": "Αγαλαίοι",
    "nameEn": "Agalaioi",
    "region": "grevena",
    "oldLat": 40.02771,
    "oldLon": 21.620975,
    "newLat": 40.0277098,
    "newLon": 21.6209748,
    "distanceKm": 0.00002801006871029309,
    "nominatimName": "Αγαλαίοι, Κέντρο, Δήμος Γρεβενών, Περιφερειακή Ενότητα Γρεβενών, Αποκεντρωμένη Διοίκηση Ηπείρου - Δυτικής Μακεδονίας, 511 00, Ελλάδα",
    "status": "ok"
  },
  {
    "tag": "Τρόπαια",
    "nameEn": "Tropaia",
    "region": "arcadia",
    "oldLat": 37.732224,
    "oldLon": 21.958431,
    "newLat": 37.7322241,
    "newLon": 21.9584315,
    "distanceKm": 10.72529791207386,
    "nominatimName": "Τρόπαια, Δημοτική Ενότητα Τροπαίων, Δήμος Γορτυνίας, Περιφερειακή Ενότητα Αρκαδίας, Περιφέρεια Πελοποννήσου, Αποκεντρωμένη Διοίκηση Πελοποννήσου, Δυτικής Ελλάδας και Ιονίου, 220 08, Ελλάδα",
    "status": "corrected"
  },
  {
    "tag": "Τρίπολη",
    "nameEn": "Tripoli",
    "region": "arcadia",
    "oldLat": 37.51,
    "oldLon": 22.37,
    "newLat": 37.5129408,
    "newLon": 22.3667914,
    "distanceKm": 0.43246330904125607,
    "nominatimName": "Αρκαδίας, Κοινότητα Τριπόλεως, Δημοτική Ενότητα Τρίπολης, Δήμος Τρίπολης, Περιφερειακή Ενότητα Αρκαδίας, Περιφέρεια Πελοποννήσου, Αποκεντρωμένη Διοίκηση Πελοποννήσου, Δυτικής Ελλάδας και Ιονίου, 221 32, Ελλάδα",
    "status": "ok"
  },
  {
    "tag": "Όχθια",
    "nameEn": "Ochthia",
    "region": "arcadia",
    "oldLat": 37.656062,
    "oldLon": 21.899082,
    "newLat": 37.656062,
    "newLon": 21.8990823,
    "distanceKm": 13.808251155302862,
    "nominatimName": "Όχθια, Δημοτική Ενότητα Ηραίας, Δήμος Γορτυνίας, Περιφερειακή Ενότητα Αρκαδίας, Περιφέρεια Πελοποννήσου, Αποκεντρωμένη Διοίκηση Πελοποννήσου, Δυτικής Ελλάδας και Ιονίου, 220 28, Ελλάδα",
    "status": "corrected"
  },
  {
    "tag": "Δόξα",
    "nameEn": "Doxa",
    "region": "arcadia",
    "oldLat": 37.706716,
    "oldLon": 21.92136,
    "newLat": 37.7067157,
    "newLon": 21.9213599,
    "distanceKm": 0.000034498970069920666,
    "nominatimName": "Δόξα, Δημοτική Ενότητα Τροπαίων, Δήμος Γορτυνίας, Περιφερειακή Ενότητα Αρκαδίας, Περιφέρεια Πελοποννήσου, Αποκεντρωμένη Διοίκηση Πελοποννήσου, Δυτικής Ελλάδας και Ιονίου, 220 08, Ελλάδα",
    "status": "ok"
  },
  {
    "tag": "Λουτρά",
    "nameEn": "Loutra",
    "region": "arcadia",
    "oldLat": 37.632143,
    "oldLon": 21.88985,
    "newLat": 37.6321432,
    "newLon": 21.8898501,
    "distanceKm": 0.000023919009646342494,
    "nominatimName": "Λουτρά, κ. Λουτρών Ηραίας, Λουτρα Ηραίας, Δημοτική Ενότητα Ηραίας, Δήμος Γορτυνίας, Περιφερειακή Ενότητα Αρκαδίας, Περιφέρεια Πελοποννήσου, Αποκεντρωμένη Διοίκηση Πελοποννήσου, Δυτικής Ελλάδας και Ιονίου, 220 28, Ελλάδα",
    "status": "ok"
  },
  {
    "tag": "Τουμπίτσι",
    "nameEn": "Toumbitsi",
    "region": "arcadia",
    "oldLat": 37.70631,
    "oldLon": 21.876174,
    "newLat": 37.7063095,
    "newLon": 21.8761743,
    "distanceKm": 14.869219036494448,
    "nominatimName": "Τουμπίτσι, Κοινότητα Τροπαίων, Δημοτική Ενότητα Τροπαίων, Δήμος Γορτυνίας, Περιφερειακή Ενότητα Αρκαδίας, Περιφέρεια Πελοποννήσου, Αποκεντρωμένη Διοίκηση Πελοποννήσου, Δυτικής Ελλάδας και Ιονίου, 220 08, Ελλάδα",
    "status": "corrected"
  },
  {
    "tag": "Χρυσοχώρι",
    "nameEn": "Chrysochori",
    "region": "arcadia",
    "oldLat": 37.647189,
    "oldLon": 21.851893,
    "newLat": 37.6471893,
    "newLon": 21.8518928,
    "distanceKm": 0.000037720665762506104,
    "nominatimName": "Χρυσοχώρι, Δημοτική Ενότητα Ηραίας, Δήμος Γορτυνίας, Περιφερειακή Ενότητα Αρκαδίας, Περιφέρεια Πελοποννήσου, Αποκεντρωμένη Διοίκηση Πελοποννήσου, Δυτικής Ελλάδας και Ιονίου, 220 08, Ελλάδα",
    "status": "ok"
  },
  {
    "tag": "Μελιδόνι",
    "nameEn": "Melidoni",
    "region": "arcadia",
    "oldLat": 37.695,
    "oldLon": 22.07,
    "newLat": null,
    "newLon": null,
    "distanceKm": -1,
    "nominatimName": "",
    "status": "not_found"
  },
  {
    "tag": "Αετοράχη",
    "nameEn": "Aetorachi",
    "region": "arcadia",
    "oldLat": 37.71,
    "oldLon": 22.04,
    "newLat": null,
    "newLon": null,
    "distanceKm": -1,
    "nominatimName": "",
    "status": "not_found"
  },
  {
    "tag": "Λίθαρος",
    "nameEn": "Litharos",
    "region": "arcadia",
    "oldLat": 37.626373,
    "oldLon": 21.898945,
    "newLat": 37.6263734,
    "newLon": 21.8989453,
    "distanceKm": 0.000051733133372393303,
    "nominatimName": "Λιθαρός, κ. Λουτρών Ηραίας, Παρνασσός, Δημοτική Ενότητα Ηραίας, Δήμος Γορτυνίας, Περιφερειακή Ενότητα Αρκαδίας, Περιφέρεια Πελοποννήσου, Αποκεντρωμένη Διοίκηση Πελοποννήσου, Δυτικής Ελλάδας και Ιονίου, 220 28, Ελλάδα",
    "status": "ok"
  },
  {
    "tag": "Κάλλιανη",
    "nameEn": "Kalliani",
    "region": "arcadia",
    "oldLat": 37.689198,
    "oldLon": 21.924479,
    "newLat": 37.6891978,
    "newLon": 21.9244793,
    "distanceKm": 12.691220870439256,
    "nominatimName": "Καλλιάνι, Δημοτική Ενότητα Τροπαίων, Δήμος Γορτυνίας, Περιφερειακή Ενότητα Αρκαδίας, Περιφέρεια Πελοποννήσου, Αποκεντρωμένη Διοίκηση Πελοποννήσου, Δυτικής Ελλάδας και Ιονίου, 220 08, Ελλάδα",
    "status": "corrected"
  },
  {
    "tag": "Αγιονέρι",
    "nameEn": "Agioneri",
    "region": "arcadia",
    "oldLat": 37.642066,
    "oldLon": 21.877124,
    "newLat": 37.6420657,
    "newLon": 21.8771243,
    "distanceKm": 0.00004255021157513717,
    "nominatimName": "Αγιονέρι, Δημοτική Ενότητα Ηραίας, Δήμος Γορτυνίας, Περιφερειακή Ενότητα Αρκαδίας, Περιφέρεια Πελοποννήσου, Αποκεντρωμένη Διοίκηση Πελοποννήσου, Δυτικής Ελλάδας και Ιονίου, 220 28, Ελλάδα",
    "status": "ok"
  },
  {
    "tag": "ΙαματικέςΠηγές",
    "nameEn": "Iamatikes Piges",
    "region": "arcadia",
    "oldLat": 37.725,
    "oldLon": 22.085,
    "newLat": null,
    "newLon": null,
    "distanceKm": -1,
    "nominatimName": "",
    "status": "not_found"
  },
  {
    "tag": "Παρνασσός",
    "nameEn": "Parnassos",
    "region": "arcadia",
    "oldLat": 37.638072,
    "oldLon": 21.90667,
    "newLat": 37.6380722,
    "newLon": 21.9066701,
    "distanceKm": 0.000023918750976767436,
    "nominatimName": "Παρνασσός, Δημοτική Ενότητα Ηραίας, Δήμος Γορτυνίας, Περιφερειακή Ενότητα Αρκαδίας, Περιφέρεια Πελοποννήσου, Αποκεντρωμένη Διοίκηση Πελοποννήσου, Δυτικής Ελλάδας και Ιονίου, 220 28, Ελλάδα",
    "status": "ok"
  },
  {
    "tag": "ΆγιοςΙωάννης",
    "nameEn": "Agios Ioannis",
    "region": "arcadia",
    "oldLat": 37.687171,
    "oldLon": 22.16788,
    "newLat": 37.687171,
    "newLon": 22.1678796,
    "distanceKm": 10.502062797065477,
    "nominatimName": "Agios Ioannis, Γεωργίου Βασιλείου, Κάτω Βυτίνα, κ. Βυτίνας, Βυτίνα, Δημοτική Ενότητα Βυτίνας, Δήμος Γορτυνίας, Περιφερειακή Ενότητα Αρκαδίας, Περιφέρεια Πελοποννήσου, Αποκεντρωμένη Διοίκηση Πελοποννήσου, Δυτικής Ελλάδας και Ιονίου, 220 10, Ελλάδα",
    "status": "corrected"
  },
  {
    "tag": "Λιοδώρα",
    "nameEn": "Liodora",
    "region": "arcadia",
    "oldLat": 37.633463,
    "oldLon": 21.856136,
    "newLat": 37.6334629,
    "newLon": 21.8561358,
    "distanceKm": 0.000020828304313375708,
    "nominatimName": "Λιοδώρα, Δημοτική Ενότητα Ηραίας, Δήμος Γορτυνίας, Περιφερειακή Ενότητα Αρκαδίας, Περιφέρεια Πελοποννήσου, Αποκεντρωμένη Διοίκηση Πελοποννήσου, Δυτικής Ελλάδας και Ιονίου, 220 28, Ελλάδα",
    "status": "ok"
  },
  {
    "tag": "Παλαιοχώρι",
    "nameEn": "Palaiochori",
    "region": "arcadia",
    "oldLat": 37.583938,
    "oldLon": 22.040747,
    "newLat": 37.5839377,
    "newLon": 22.040747,
    "distanceKm": 13.040502494752735,
    "nominatimName": "Παλαιοχώρι, Κοινότητα Δημητσάνας, Δημοτική Ενότητα Δημητσάνας, Δήμος Γορτυνίας, Περιφερειακή Ενότητα Αρκαδίας, Περιφέρεια Πελοποννήσου, Αποκεντρωμένη Διοίκηση Πελοποννήσου, Δυτικής Ελλάδας και Ιονίου, 220 07, Ελλάδα",
    "status": "corrected"
  },
  {
    "tag": "Πύρρης",
    "nameEn": "Pyrris",
    "region": "arcadia",
    "oldLat": 37.616047,
    "oldLon": 21.841134,
    "newLat": 37.6160473,
    "newLon": 21.8411335,
    "distanceKm": 0.00005524754545041827,
    "nominatimName": "Πυρρής, Δημοτική Ενότητα Ηραίας, Δήμος Γορτυνίας, Περιφερειακή Ενότητα Αρκαδίας, Περιφέρεια Πελοποννήσου, Αποκεντρωμένη Διοίκηση Πελοποννήσου, Δυτικής Ελλάδας και Ιονίου, 220 28, Ελλάδα",
    "status": "ok"
  },
  {
    "tag": "Φαναράκι",
    "nameEn": "Fanaraki",
    "region": "arcadia",
    "oldLat": 37.68246,
    "oldLon": 21.87728,
    "newLat": 37.6824602,
    "newLon": 21.8772796,
    "distanceKm": 0.00004163696123358769,
    "nominatimName": "Φαναράκι, Δημοτική Ενότητα Τροπαίων, Δήμος Γορτυνίας, Περιφερειακή Ενότητα Αρκαδίας, Περιφέρεια Πελοποννήσου, Αποκεντρωμένη Διοίκηση Πελοποννήσου, Δυτικής Ελλάδας και Ιονίου, 220 08, Ελλάδα",
    "status": "ok"
  },
  {
    "tag": "Λώτης",
    "nameEn": "Lotis",
    "region": "arcadia",
    "oldLat": 37.620646,
    "oldLon": 21.878642,
    "newLat": 37.6206465,
    "newLon": 21.878642,
    "distanceKm": 0.000055597463181909266,
    "nominatimName": "Λώτης, Δημοτική Ενότητα Ηραίας, Δήμος Γορτυνίας, Περιφερειακή Ενότητα Αρκαδίας, Περιφέρεια Πελοποννήσου, Αποκεντρωμένη Διοίκηση Πελοποννήσου, Δυτικής Ελλάδας και Ιονίου, 220 28, Ελλάδα",
    "status": "ok"
  },
  {
    "tag": "Καστράκι",
    "nameEn": "Kastraki",
    "region": "arcadia",
    "oldLat": 37.670457,
    "oldLon": 21.872404,
    "newLat": 37.6704571,
    "newLon": 21.8724041,
    "distanceKm": 0.000014181314717160563,
    "nominatimName": "Καστράκι, Δημοτική Ενότητα Τροπαίων, Δήμος Γορτυνίας, Περιφερειακή Ενότητα Αρκαδίας, Περιφέρεια Πελοποννήσου, Αποκεντρωμένη Διοίκηση Πελοποννήσου, Δυτικής Ελλάδας και Ιονίου, 220 08, Ελλάδα",
    "status": "ok"
  },
  {
    "tag": "Χιλιομόδι",
    "nameEn": "Chilomodi",
    "region": "corinthia",
    "oldLat": 37.809532,
    "oldLon": 22.870123,
    "newLat": 37.8095319,
    "newLon": 22.8701225,
    "distanceKm": 11.197965173348178,
    "nominatimName": "Χιλιομόδι, Δημοτική Ενότητα Τενέας, Δήμος Κορινθίων, Περιφερειακή Ενότητα Κορινθίας, Περιφέρεια Πελοποννήσου, Αποκεντρωμένη Διοίκηση Πελοποννήσου, Δυτικής Ελλάδας και Ιονίου, 200 08, Ελλάδα",
    "status": "corrected"
  },
  {
    "tag": "Σολομό",
    "nameEn": "Solomo",
    "region": "corinthia",
    "oldLat": 37.838,
    "oldLon": 22.757,
    "newLat": null,
    "newLon": null,
    "distanceKm": -1,
    "nominatimName": "",
    "status": "not_found"
  },
  {
    "tag": "Κερατέας",
    "nameEn": "Kerateas",
    "region": "attica_south",
    "oldLat": 37.756565,
    "oldLon": 24.016189,
    "newLat": 37.7565646,
    "newLon": 24.0161891,
    "distanceKm": 8.526954828847327,
    "nominatimName": "Δημοτική Ενότητα Κερατέας, Δήμος Λαυρεωτικής, Περιφερειακή Ενότητα Ανατολικής Αττικής, Περιφέρεια Αττικής, Αποκεντρωμένη Διοίκηση Αττικής, 190 01, Ελλάδα",
    "status": "corrected"
  },
  {
    "tag": "Λαύριο",
    "nameEn": "Lavrio",
    "region": "attica_south",
    "oldLat": 37.718,
    "oldLon": 24.053,
    "newLat": 37.7142551,
    "newLon": 24.0548015,
    "distanceKm": 0.44554526813684353,
    "nominatimName": "Λαύριο, Δημοτική Ενότητα Λαυρεωτικής, Δήμος Λαυρεωτικής, Περιφερειακή Ενότητα Ανατολικής Αττικής, Περιφέρεια Αττικής, Αποκεντρωμένη Διοίκηση Αττικής, 195 00, Ελλάδα",
    "status": "ok"
  },
  {
    "tag": "Ανάβυσσο",
    "nameEn": "Anavyssos",
    "region": "attica_south",
    "oldLat": 37.737562,
    "oldLon": 23.952192,
    "newLat": 37.7375619,
    "newLon": 23.9521915,
    "distanceKm": 1.8072769922302023,
    "nominatimName": "Ανάβυσσος, Δημοτική Ενότητα Αναβύσσου, Δήμος Σαρωνικού, Περιφερειακή Ενότητα Ανατολικής Αττικής, Περιφέρεια Αττικής, Αποκεντρωμένη Διοίκηση Αττικής, 190 13, Ελλάδα",
    "status": "corrected"
  },
  {
    "tag": "Συντερίνα",
    "nameEn": "Synterina",
    "region": "attica_south",
    "oldLat": 37.73,
    "oldLon": 23.92,
    "newLat": null,
    "newLon": null,
    "distanceKm": -1,
    "nominatimName": "",
    "status": "not_found"
  },
  {
    "tag": "Μαρκάτι",
    "nameEn": "Markati",
    "region": "attica_south",
    "oldLat": 37.74324,
    "oldLon": 24.025995,
    "newLat": 37.7432395,
    "newLon": 24.0259946,
    "distanceKm": 6.723950195719195,
    "nominatimName": "Μαρκάτι, Δημοτική Ενότητα Κερατέας, Δήμος Λαυρεωτικής, Περιφερειακή Ενότητα Ανατολικής Αττικής, Περιφέρεια Αττικής, Αποκεντρωμένη Διοίκηση Αττικής, 341 95, Ελλάδα",
    "status": "corrected"
  },
  {
    "tag": "Άγιο_Κωνσταντίνο",
    "nameEn": "Agios Konstantinos",
    "region": "attica_south",
    "oldLat": 37.726096,
    "oldLon": 24.015035,
    "newLat": 37.726096,
    "newLon": 24.0150346,
    "distanceKm": 2.36695021225506,
    "nominatimName": "Άγιος Κωνσταντίνος, Δημοτική Ενότητα Αγίου Κωνστανίνου, Δήμος Λαυρεωτικής, Περιφερειακή Ενότητα Ανατολικής Αττικής, Περιφέρεια Αττικής, Αποκεντρωμένη Διοίκηση Αττικής, 195 00, Ελλάδα",
    "status": "corrected"
  },
  {
    "tag": "Αγίους_Θεοδώρους",
    "nameEn": "Agioi Theodoroi",
    "region": "other",
    "oldLat": 37.933,
    "oldLon": 23.112,
    "newLat": 39.3672028,
    "newLon": 22.0181037,
    "distanceKm": 185.62078117844675,
    "nominatimName": "Θολωτός τάφος στους Αγίους Θεοδώρους Καρδίτσας, Αυτοκινητόδρομος Κεντρικής Ελλάδας, Άγιος Θεόδωρος, Δήμος Καρδίτσας, Περιφερειακή Ενότητα Καρδίτσας, Περιφέρεια Θεσσαλίας, Αποκεντρωμένη Διοίκηση Θεσσαλίας - Στερεάς Ελλάδος, 431 00, Ελλάδα",
    "status": "large_shift"
  },
  {
    "tag": "Αγριλόβουνο",
    "nameEn": "Agrilovouno",
    "region": "other",
    "oldLat": 37.936,
    "oldLon": 23.12,
    "newLat": 37.2983189,
    "newLon": 21.9425958,
    "distanceKm": 125.62563728933605,
    "nominatimName": "Αγριλόβουνο, Δήμος Οιχαλίας, Περιφερειακή Ενότητα Μεσσηνίας, Περιφέρεια Πελοποννήσου, Αποκεντρωμένη Διοίκηση Πελοποννήσου, Δυτικής Ελλάδας και Ιονίου, 240 08, Ελλάδα",
    "status": "large_shift"
  },
  {
    "tag": "Μοναστηράκι",
    "nameEn": "Monastiraki",
    "region": "other",
    "oldLat": 37.934,
    "oldLon": 23.115,
    "newLat": 38.851024,
    "newLon": 20.9441377,
    "distanceKm": 214.91452322555512,
    "nominatimName": "Μοναστηράκι, Δημοτική Ενότητα Ανακτορίου, Δήμος Ακτίου - Βόνιτσας, Περιφερειακή Ενότητα Αιτωλοακαρνανίας, Περιφέρεια Δυτικής Ελλάδας, Αποκεντρωμένη Διοίκηση Πελοποννήσου, Δυτικής Ελλάδας και Ιονίου, 300 13, Ελλάδα",
    "status": "large_shift"
  }
]
